loc_phone,loc_name,loc_admin_street1,loc_admin_city,loc_admin_state,loc_admin_zip,web_address,insurance_accepted,med_name,latitude,longitude
(718) 492-1500,4th Avenue Pharmacy #MS1005633,5002 4th Avenue,Brooklyn,NY,11220-1814,,,"Janssen, COVID-19 Vaccine, 0.5 mL",40.646507,-74.012974
718-241-3559,Rite Aid #RA103869,1791 UTICA AVENUE,BROOKLYN,NY,11234-2120,https://www.riteaid.com,True,"Moderna, COVID-19 Vaccine, 100mcg/0.5mL 10 dose",40.628933,-73.927624
(718) 779-2221,Vida Care Pharmacy LLC #MS1005570,37-64 90th Street,Jackson Heights,NY,11372-7830,,True,"Moderna, COVID-19 Vaccine, 100mcg/0.5mL 10 dose",40.74872,-73.876767
7182528535,ShopRite Pharmacy #191471,1080 MCDONALD AVE,BROOKLYN,NY,11230,https://vaccines.shoprite.com/,True,"Moderna, SPIKEVAX, 100mcg/0.5mL",40.626740000000005,-73.97694200000001
718-856-8841,Rite Aid #RA104246,892-908 FLATBUSH AVENUE,BROOKLYN,NY,11226-4018,https://www.riteaid.com,True,"Janssen, COVID-19 Vaccine, 0.5 mL",40.649673,-73.958854
(718) 378-6800,rite care pharmacy #MS1005541,898 e 163rd street,bronx,NY,10459,https://ritecarepharmacy.makeplans.net,True,"Pfizer-BioNTech, COVID-19 Vaccine, 10 mcg/0.2 mL, tris-sucrose",40.82085,-73.89831
718-392-8474,Rite Aid #RA104858,46-12 GREENPOINT AVENUE,SUNNYSIDE,NY,11104-1708,https://www.riteaid.com,True,"Janssen, COVID-19 Vaccine, 0.5 mL",40.742084999999996,-73.918392
(718) 261-8440,TRAYMORE CHEMISTS #MS1005223,110-80 QUEENS BLVD,FOREST HILLS,NY,11375-6345,,True,"Pfizer-BioNTech, COVID-19 Vaccine, 30 mcg/0.3mL, tris-sucrose",40.718601,-73.838617
(718) 264-2222,Nutracare Pharmacy #5821411,22036 HILLSIDE AVE,Queens Village,NY,11427,http://www.nutracarepharmacy.com,True,"Pfizer-BioNTech, COVID-19 Vaccine, 10 mcg/0.2 mL, tris-sucrose",40.730815,-73.742486
(212) 690-6502,ROSY PHARMACY #MS1005439,3355 BROADWAY,NEW YORK,NY,10031,,True,"Pfizer-BioNTech, COVID-19 Vaccine, 30 mcg/0.3mL, tris-sucrose",40.820665000000005,-73.95506800000001
(917) 830-0600,Lucias Pharmacy #MS1005678,2090 HYLAN BLVD,Staten Island,NY,10306,http://www.luciaspharmacy.com,True,"Moderna, COVID-19 Vaccine, 100mcg/0.5mL 10 dose",40.579081,-74.100538
(718) 349-8989,SAI APTEKA PHARMACY INC. #MS1000208,151 NASSAU AVE,BROOKLYN,NY,11222-4023,,True,"Moderna, COVID-19 Vaccine, 100mcg/0.5mL 10 dose",40.725066,-73.947222
(718) 768-2700,Greentree Pharmacy #MS1005401,291 7th Avenue,BROOKLYN,NY,11215,http://www.greentreepharmacy.com,True,"Moderna, COVID-19 Vaccine, 100mcg/0.5mL 10 dose",40.66788,-73.980498
(718) 680-9855,BEST CARE PHARMACY #332502,8510 3RD AVENUE,BROOKLYN,NY,11209,https://bestcarepharmacy.com/,True,"Moderna, COVID-19 Vaccine, 100mcg/0.5mL 10 dose",40.624089,-74.030999
212-925-6088,FAMILY CHOICE PHARMACY CORP #MS1005909,13-17 ELIZABETH ST UNIT10,NEW YORK,NY,10013-4149,,,"Janssen, COVID-19 Vaccine, 0.5 mL",40.716055,-73.997548
212-534-9781,Rite Aid #RA104798,2155 THIRD AVENUE,NEW YORK,NY,10035-4707,https://www.riteaid.com,True,"Pfizer-BioNTech, COVID-19 Vaccine, 30 mcg/0.3mL, tris-sucrose",40.799013,-73.93890999999999
708-524-7099,HENDRIX PHARMACY #MS1006487,121 LAFAYETTE AVE,STATEN ISLAND,NY,10301-1249,,,"Pfizer-BioNTech, COVID-19 Vaccine, 30 mcg/0.3mL, tris-sucrose",40.641897,-74.094895
7182528535,ShopRite Pharmacy #191471,1080 MCDONALD AVE,BROOKLYN,NY,11230,https://vaccines.shoprite.com/,True,"Moderna, COVID-19 pediatric vaccine, 25mcg/.25 ml",40.626740000000005,-73.97694200000001
(718) 236-5705,Silver Rod Pharmacy #MS1005246,6404 18TH AVE,Brooklyn,NY,11204-3796,http://www.silverrodrx.com,True,"Janssen, COVID-19 Vaccine, 0.5 mL",40.619739,-73.989939
718-282-7476,Rite Aid #RA103978,1679 BEDFORD AVENUE,BROOKLYN,NY,11225-2601,https://www.riteaid.com,True,"Janssen, COVID-19 Vaccine, 0.5 mL",40.665286,-73.956785
718-575-1012,Rite Aid #RA104852,71-14 AUSTIN STREET,FOREST HILLS,NY,11375-4721,https://www.riteaid.com,True,"Pfizer-BioNTech, COVID-19 Vaccine, 30 mcg/0.3mL, tris-sucrose",40.719803999999996,-73.84452900000001
(212) 690-6502,ROSY PHARMACY #MS1005439,3355 BROADWAY,NEW YORK,NY,10031,,True,"Janssen, COVID-19 Vaccine, 0.5 mL",40.820665000000005,-73.95506800000001
(718) 969-3300,AVONORA INC #5829760,14901 UNION TURNPIKE,FLUSHING,NY,11367,,True,"Moderna, COVID-19 Vaccine, 50 mcg/0.50 mL",40.718798,-73.813692
(718) 378-6800,rite care pharmacy #MS1005541,898 e 163rd street,bronx,NY,10459,https://ritecarepharmacy.makeplans.net,True,"Janssen, COVID-19 Vaccine, 0.5 mL",40.82085,-73.89831
(718) 429-7666,MI FARMACIA #MS1001199,90-15 ROOSEVELT AVENUE,JACKSON HEIGHTS,NY,11372,,True,"Janssen, COVID-19 Vaccine, 0.5 mL",40.748674,-73.87576999999999
7182528535,ShopRite Pharmacy #191471,1080 MCDONALD AVE,BROOKLYN,NY,11230,https://vaccines.shoprite.com/,True,"Novavax, COVID-19 Vaccine, 5 mcg/0.5 mL",40.626740000000005,-73.97694200000001
(212) 472-5600,Health Wise Pharmacy #MS1005093,1494 York Ave,New York,NY,10075,http://www.thehealthwisenyc.com,True,"Pfizer-BioNTech, COVID-19 Vaccine, 10 mcg/0.2 mL, tris-sucrose",40.771137,-73.95038000000001
(718) 232-8277,WELLNESS PHARMACY INC #MS1006265,217 KINGS HWY,BROOKLYN,NY,11223-1106,,True,"Janssen, COVID-19 Vaccine, 0.5 mL",40.605666,-73.98342
(718) 899-1700,Northern Blvd Pharmacy #MS1005493,100-16 northern blvd,Corona,NY,11368-1047,,True,"Pfizer-BioNTech, COVID-19 Vaccine, 10 mcg/0.2 mL, tris-sucrose",40.757155,-73.867694
(718) 405-9111,Benjamins Pharmacy and Surgical #MS1005357,989 Allerton Ave,Bronx,NY,10469,http://www.benjaminspharmacy.com,True,"Janssen, COVID-19 Vaccine, 0.5 mL",40.865774,-73.858806
(718) 500-4928,OMM PHARMACY #MS1000190,942 MANHATTAN AVE,BROOKLYN,NY,11222-1626,,True,"Pfizer-BioNTech, COVID-19 Vaccine, 10 mcg/0.2 mL, tris-sucrose",40.731466,-73.95424100000001
(718) 969-3300,AVONORA INC #5829760,14901 UNION TURNPIKE,FLUSHING,NY,11367,,True,"Pfizer-BioNTech, COMIRNATY, 30 mcg/0.3 mL, tris-sucrose",40.718798,-73.813692
212-475-5315,Rite Aid #RA103771,85 AVENUE D,NEW YORK,NY,10009-5338,https://www.riteaid.com,True,"Moderna, COVID-19 Vaccine, 100mcg/0.5mL 10 dose",40.722844,-73.976902
(718) 224-3233,DANA PHARMACY INC #MS1000428,248-12 NORTHERN BLVD 1C,LITTLE NECK,NY,11362-1207,,True,"Pfizer-BioNTech, COVID-19 Vaccine, 30 mcg/0.3mL, tris-sucrose",40.766931,-73.73873
917-521-7814,Rite Aid #RA102727,1510 SAINT NICHOLAS AVENUE,NEW YORK,NY,10033-3124,https://www.riteaid.com,True,"Moderna, COVID-19 Vaccine, 100mcg/0.5mL 10 dose",40.852126,-73.931344
718-380-8259,Rite Aid #RA103626,158-02 UNION TURNPIKE,FLUSHING,NY,11366-1940,https://www.riteaid.com,True,"Janssen, COVID-19 Vaccine, 0.5 mL",40.719840999999995,-73.808228
212-534-9781,Rite Aid #RA104798,2155 THIRD AVENUE,NEW YORK,NY,10035-4707,https://www.riteaid.com,True,"Moderna, COVID-19 Vaccine, 100mcg/0.5mL 10 dose",40.799013,-73.93890999999999
(718) 293-0800,Rx Masters Inc #MS1005337,1437 Webster Ave,Bronx,NY,10456-1831,https://rxmastersinc.com,True,"Moderna, COVID-19 Vaccine, 100mcg/0.5mL 10 dose",40.837332,-73.907039
(718) 708-5400,gig pharmacy inc #MS1005616,3405 jerome ave,bronx,NY,10467-1049,http://www.gigpharmacyinc.com,True,"Janssen, COVID-19 Vaccine, 0.5 mL",40.880828,-73.883708
(718) 742-7622,SMARTRX PHARMACY INC #5827184,1706 LEXINGTON AVE,NEW YORK,NY,10029,http://www.smartrxnyc.com,True,"Pfizer-BioNTech, COMIRNATY, 30 mcg/0.3 mL, tris-sucrose",40.792806,-73.946143
(718) 969-3300,AVONORA INC #5829760,14901 UNION TURNPIKE,FLUSHING,NY,11367,,True,"Pfizer-BioNTech, COVID-19 Vaccine, 3 mcg/0.2 mL, tris-sucrose",40.718798,-73.813692
(718) 749-9219,Cairo Rx Inc #5829924,1932 Bath Avenue,Brooklyn,NY,11214,,True,"Pfizer-BioNTech, COVID-19 Vaccine, 3 mcg/0.2 mL, tris-sucrose",40.601960999999996,-74.00294
(718) 583-5900,PARK PLAZA PHARMACY #MS1005354,1773 UNIVERSITY AVENUE,BRONX,NY,10453-6997,http://www.parkplazapharmacyny.com,True,"Janssen, COVID-19 Vaccine, 0.5 mL",40.85058,-73.915962
(718) 708-7427,LEGEND DRUGS 1 LLC #MS1000262,159 E GUN HILL RD,BRONX,NY,10467-2106,https://www.legenddrugs1.com/,True,"Janssen, COVID-19 Vaccine, 0.5 mL",40.881178000000006,-73.878298
(718) 500-4928,OMM PHARMACY #MS1000190,942 MANHATTAN AVE,BROOKLYN,NY,11222-1626,,True,"Moderna, COVID-19 Vaccine, 100mcg/0.5mL 10 dose",40.731466,-73.95424100000001
(718) 779-2221,Vida Care Pharmacy LLC #MS1005570,37-64 90th Street,Jackson Heights,NY,11372-7830,,True,"Pfizer-BioNTech, COVID-19 Vaccine, 30 mcg/0.3mL, tris-sucrose",40.74872,-73.876767
917-521-7814,Rite Aid #RA102727,1510 SAINT NICHOLAS AVENUE,NEW YORK,NY,10033-3124,https://www.riteaid.com,True,"Janssen, COVID-19 Vaccine, 0.5 mL",40.852126,-73.931344
718-933-1154,Leroy Pharmacy IV #MS1005225,387 Bedford Park Blvd,Bronx,NY,10458,,,"Moderna, COVID-19 Vaccine, 100mcg/0.5mL 10 dose",40.867888,-73.883672
718-886-1515,Rite Aid #RA104863,144-29 NORTHERN BOULEVARD,FLUSHING,NY,11354-4230,https://www.riteaid.com,True,"Janssen, COVID-19 Vaccine, 0.5 mL",40.765034,-73.822473
718-676-4405,PRIME HEALTH PHARMACY LLC #MS1006227,1417 BEDFORD AVE,BROOKLYN,NY,11216-4843,,,"Janssen, COVID-19 Vaccine, 0.5 mL",40.674687,-73.953455
718-565-1473,Rite Aid #RA103984,82-13 37TH AVENUE,JACKSON HEIGHTS,NY,11372-7011,https://www.riteaid.com,True,"Moderna, COVID-19 Vaccine, Bivalent Booster, 50mcg/0.5 mL",40.750019,-73.883899
718-803-3025,Stop & Shop #509,74-17 GRAND AVENUE,ELMHURST,NY,11373,https://stopandshopsched.rxtouch.com/rbssched/program/wellness,True,"Pfizer-BioNTech, COVID-19 Vaccine, 10 mcg/0.2 mL, tris-sucrose",40.731133,-73.887295
718-803-3025,Stop & Shop #509,74-17 GRAND AVENUE,ELMHURST,NY,11373,https://stopandshopsched.rxtouch.com/rbssched/program/wellness,True,"Pfizer-BioNTech, COVID-19 Vaccine, 30 mcg/0.3mL, tris-sucrose",40.731133,-73.887295
718-975-8555,TOP CARE PHARMACY RX LLC #MS1006226,380 RALPH AVE,BROOKLYN,NY,11233-3918,,,"Janssen, COVID-19 Vaccine, 0.5 mL",40.675845,-73.922227
(718) 749-9219,Cairo Rx Inc #5829924,1932 Bath Avenue,Brooklyn,NY,11214,,True,"Janssen, COVID-19 Vaccine, 0.5 mL",40.601960999999996,-74.00294
(718) 349-8989,SAI APTEKA PHARMACY INC. #MS1000208,151 NASSAU AVE,BROOKLYN,NY,11222-4023,,True,"Pfizer-BioNTech, COVID-19 Vaccine, 10 mcg/0.2 mL, tris-sucrose",40.725066,-73.947222
(718) 996-7600,BOARDWALK RX CORP #MS1006165,3100 Ocean Pkwy,brooklyn,NY,11235-8439,,True,"Janssen, COVID-19 Vaccine, 0.5 mL",40.576192999999996,-73.969431
(718) 782-7539,Medly Pharmacy #MS1005180,31 Debevoise Street,Brooklyn,NY,11206,http://www.medlypharmacy.com,True,"Pfizer-BioNTech, COVID-19 Vaccine, 10 mcg/0.2 mL, tris-sucrose",40.70191,-73.941637
(718) 500-4928,OMM PHARMACY #MS1000190,942 MANHATTAN AVE,BROOKLYN,NY,11222-1626,,True,"Janssen, COVID-19 Vaccine, 0.5 mL",40.731466,-73.95424100000001
(718) 349-6696,Euro Chemist Pharmacy #MS1005173,669 Manhattan ave,Brooklyn,NY,11222-3113,,True,"Pfizer-BioNTech, COMIRNATY, 30 mcg/0.3 mL, tris-sucrose",40.724703999999996,-73.951534
(718) 368-1190,Rx Choice Pharmacy #MS1005081,1908 Avenue U,Brooklyn,NY,11229,,True,"Janssen, COVID-19 Vaccine, 0.5 mL",40.599069,-73.952216
(718) 749-9219,Cairo Rx Inc #5829924,1932 Bath Avenue,Brooklyn,NY,11214,,True,"Pfizer-BioNTech, COVID-19 Vaccine, 30 mcg/0.3mL, tris-sucrose",40.601960999999996,-74.00294
718-727-6400,Rite Aid #RA110535,385 BAY STREET STE 1,STATEN ISLAND,NY,10301-3264,https://www.riteaid.com,True,"Pfizer-BioNTech, COVID-19 Vaccine, 10 mcg/0.2 mL, tris-sucrose",40.632519,-74.074945
(718) 292-0900,BOOM PHARMACY #MS1005364,226 EAST 144TH ST FL 2,BRONX,NY,10451-5909,http://www.boompharmacy.com,True,"Janssen, COVID-19 Vaccine, 0.5 mL",40.815619,-73.925557
(718) 266-2137,86TH STREET COMMUNITY PHARMACY CORP #MS1000261,2789 86TH ST,BROOKLYN,NY,11223-4433,https://86thstreetcommunitypharmacy.com/,True,"Moderna, COVID-19 Vaccine, 100mcg/0.5mL 10 dose",40.593435,-73.97930699999999
718-649-0499,STAR DRUGS #MS1006163,922 PENNSYLVANIA AVE,BROOKLYN,NY,11207-8402,,,"Pfizer-BioNTech, COMIRNATY, 30 mcg/0.3 mL, tris-sucrose",40.655207,-73.888538
(212) 690-6502,ROSY PHARMACY #MS1005439,3355 BROADWAY,NEW YORK,NY,10031,,True,"Pfizer-BioNTech, COVID-19 Vaccine, 10 mcg/0.2 mL, tris-sucrose",40.820665000000005,-73.95506800000001
212-582-8525,Walgreens Co. #14115,51 W 51ST ST,NEW YORK,NY,10019-6113,https://www.walgreens.com,True,"Pfizer-BioNTech, COVID-19 Vaccine, 10 mcg/0.2 mL, tris-sucrose",40.76008,-73.978575
(718) 376-3313,AID PHARMACY #MS1005943,807 KINGS HIGHWAY,BROOKLYN,NY,11223,,True,"Moderna, COVID-19 Vaccine, 100mcg/0.5mL 10 dose",40.60675,-73.964338
(212) 749-6626,ahma Rx #MS1005386,2381 Frederick Douglass Blvd,New York,NY,10027-1822,http://www.ahmarx.com,True,"Janssen, COVID-19 Vaccine, 0.5 mL",40.812108,-73.950141
(718) 749-9219,Cairo Rx Inc #5829924,1932 Bath Avenue,Brooklyn,NY,11214,,True,"Moderna, COVID-19 Vaccine, 100mcg/0.5mL 10 dose",40.601960999999996,-74.00294
(718) 899-1700,Northern Blvd Pharmacy #MS1005493,100-16 northern blvd,Corona,NY,11368-1047,,True,"Janssen, COVID-19 Vaccine, 0.5 mL",40.757155,-73.867694
718-565-1473,Rite Aid #RA103984,82-13 37TH AVENUE,JACKSON HEIGHTS,NY,11372-7011,https://www.riteaid.com,True,"Pfizer-BioNTech, COVID-19 Vaccine, 10 mcg/0.2 mL, tris-sucrose",40.750019,-73.883899
718-933-1154,Leroy Pharmacy IV #MS1005225,387 Bedford Park Blvd,Bronx,NY,10458,,,"Janssen, COVID-19 Vaccine, 0.5 mL",40.867888,-73.883672
(718) 827-7528,AMIABLE PHARMACY #MS1005775,1108 LIBERTY AVE,BROOKLYN,NY,11208-2922,http://amiableph.com,True,"Janssen, COVID-19 Vaccine, 0.5 mL",40.678360999999995,-73.86839300000001
(718) 271-9429,CEDARS PHARMACY #MS1005113,95-19 57TH AVE,ELMHURST,NY,11373-4616,,True,"Janssen, COVID-19 Vaccine, 0.5 mL",40.737,-73.865152
(718) 768-2700,Greentree Pharmacy #MS1005401,291 7th Avenue,BROOKLYN,NY,11215,http://www.greentreepharmacy.com,True,"Janssen, COVID-19 Vaccine, 0.5 mL",40.66788,-73.980498
(718) 899-1700,Northern Blvd Pharmacy #MS1005493,100-16 northern blvd,Corona,NY,11368-1047,,True,"Moderna, COVID-19 Vaccine, 100mcg/0.5mL 10 dose",40.757155,-73.867694
(718) 378-6800,rite care pharmacy #MS1005541,898 e 163rd street,bronx,NY,10459,https://ritecarepharmacy.makeplans.net,True,"Moderna, COVID-19 Vaccine, 100mcg/0.5mL 10 dose",40.82085,-73.89831
(212) 928-6342,COLUMBIA PHARMACY #MS1005077,3921 BROADWAY,NEW YORK,NY,10032,,True,"Moderna, COVID-19 Vaccine, 100mcg/0.5mL 10 dose",40.838652,-73.941874
212-534-9781,Rite Aid #RA104798,2155 THIRD AVENUE,NEW YORK,NY,10035-4707,https://www.riteaid.com,True,"Janssen, COVID-19 Vaccine, 0.5 mL",40.799013,-73.93890999999999
(718) 293-0800,Rx Masters Inc #MS1005337,1437 Webster Ave,Bronx,NY,10456-1831,https://rxmastersinc.com,True,"Janssen, COVID-19 Vaccine, 0.5 mL",40.837332,-73.907039
212-475-5315,Rite Aid #RA103771,85 AVENUE D,NEW YORK,NY,10009-5338,https://www.riteaid.com,True,"Pfizer-BioNTech, COVID-19 Vaccine, 30 mcg/0.3mL, tris-sucrose",40.722844,-73.976902
718-997-8700,Merrick Pharmacy #MS1005221,23428 Merrick Blvd,Rosedale,NY,11422-1320,,,"Moderna, COVID-19 Vaccine, 100mcg/0.5mL 10 dose",40.673934,-73.735682
(718) 680-9855,BEST CARE PHARMACY #332502,8510 3RD AVENUE,BROOKLYN,NY,11209,https://bestcarepharmacy.com/,True,"Janssen, COVID-19 Vaccine, 0.5 mL",40.624089,-74.030999
718-575-1012,Rite Aid #RA104852,71-14 AUSTIN STREET,FOREST HILLS,NY,11375-4721,https://www.riteaid.com,True,"Moderna, COVID-19 Vaccine, 100mcg/0.5mL 10 dose",40.719803999999996,-73.84452900000001
(718) 429-7666,MI FARMACIA #MS1001199,90-15 ROOSEVELT AVENUE,JACKSON HEIGHTS,NY,11372,,True,"Moderna, COVID-19 Vaccine, 100mcg/0.5mL 10 dose",40.748674,-73.87576999999999
(718) 742-7622,SMARTRX PHARMACY INC #5827184,1706 LEXINGTON AVE,NEW YORK,NY,10029,http://www.smartrxnyc.com,True,"Moderna, COVID-19 Vaccine, 50 mcg/0.50 mL",40.792806,-73.946143
(718) 749-9219,Cairo Rx Inc #5829924,1932 Bath Avenue,Brooklyn,NY,11214,,True,"Pfizer-BioNTech, COVID-19 Vaccine, 10 mcg/0.2 mL, tris-sucrose",40.601960999999996,-74.00294
(718) 891-2801,ALL AMERICAN DRUGGISTS #MS1003351,1101 BRIGHTON BEACH AVE,BROOKLYN,NY,11235-5558,,True,"Janssen, COVID-19 Vaccine, 0.5 mL",40.578140000000005,-73.956677
(347) 963-9700,RX SOLUTIONS PHARMACY INC #MS1005618,2 E 167TH ST,BRONX,NY,10452,www.rxsolutionspharmacyinc.com,True,"Moderna, COVID-19 Vaccine, 100mcg/0.5mL 10 dose",40.835906,-73.92224399999999
(212) 472-5600,Health Wise Pharmacy,1494 York Ave,New York,NY,10075,https://thehealthwisenyc.com/,,"Pfizer-BioNTech, COVID-19 Vaccine, 10 mcg/0.2 mL, tris-sucrose",40.771137,-73.95038000000001
718-241-3559,Rite Aid #RA103869,1791 UTICA AVENUE,BROOKLYN,NY,11234-2120,https://www.riteaid.com,True,"Pfizer-BioNTech, COVID-19 Vaccine, 30 mcg/0.3mL, tris-sucrose",40.628933,-73.927624
(212) 928-6342,COLUMBIA PHARMACY #MS1005077,3921 BROADWAY,NEW YORK,NY,10032,,True,"Pfizer-BioNTech, COVID-19 Vaccine, 30 mcg/0.3mL, tris-sucrose",40.838652,-73.941874
(212) 472-5600,Health Wise Pharmacy #MS1005093,1494 York Ave,New York,NY,10075,http://www.thehealthwisenyc.com,True,"Janssen, COVID-19 Vaccine, 0.5 mL",40.771137,-73.95038000000001
718-727-6400,Rite Aid #RA110535,385 BAY STREET STE 1,STATEN ISLAND,NY,10301-3264,https://www.riteaid.com,True,"Moderna, COVID-19 Vaccine, 100mcg/0.5mL 10 dose",40.632519,-74.074945
(718) 227-0710,Annadale Family Pharmacy Inc. #MS1005167,831 Annadale Road,Staten Island,NY,10312,,True,"Pfizer-BioNTech, COVID-19 Vaccine, 10 mcg/0.2 mL, tris-sucrose",40.541571999999995,-74.177139
718-565-1473,Rite Aid #RA103984,82-13 37TH AVENUE,JACKSON HEIGHTS,NY,11372-7011,https://www.riteaid.com,True,"Janssen, COVID-19 Vaccine, 0.5 mL",40.750019,-73.883899
718-575-1012,Rite Aid #RA104852,71-14 AUSTIN STREET,FOREST HILLS,NY,11375-4721,https://www.riteaid.com,True,"Janssen, COVID-19 Vaccine, 0.5 mL",40.719803999999996,-73.84452900000001
917-521-7814,Rite Aid #RA102727,1510 SAINT NICHOLAS AVENUE,NEW YORK,NY,10033-3124,https://www.riteaid.com,True,"Pfizer-BioNTech, COVID-19 Vaccine, 10 mcg/0.2 mL, tris-sucrose",40.852126,-73.931344
(212) 966-7599,Hester Pharmacy #3358670,153 Hester Street,NEW YORK,NY,10013,,True,"Pfizer-BioNTech, COVID-19 Vaccine, 10 mcg/0.2 mL, tris-sucrose",40.717532,-73.99576400000001
(718) 742-7622,SMARTRX PHARMACY INC #5827184,1706 LEXINGTON AVE,NEW YORK,NY,10029,http://www.smartrxnyc.com,True,"Janssen, COVID-19 Vaccine, 0.5 mL",40.792806,-73.946143
(718) 805-7000,MEDEX PHARMACY,96-02 JAMAICA AVE,WOODHAVEN,NY,11421,https://www.medexpharmacyny.com,,"Pfizer-BioNTech, COVID-19 Vaccine, 10 mcg/0.2 mL, tris-sucrose",40.694358,-73.84928199999999
212-795-3218,Rite Aid #RA107759,1033 ST NICHOLAS AVENUE,NEW YORK,NY,10032-3806,https://www.riteaid.com,True,"Moderna, COVID-19 Vaccine, 100mcg/0.5mL 10 dose",40.83602,-73.94018299999999
212-582-8525,Walgreens Co. #14115,51 W 51ST ST,NEW YORK,NY,10019-6113,https://www.walgreens.com,True,"Pfizer-BioNTech, COVID-19 Vaccine, 30 mcg/0.3mL, tris-sucrose",40.76008,-73.978575
(347) 590-1030,NICKDRUGS STORE #MS1002304,3060 BOSTON RD,bronx,NY,10469-4038,http://www.nicksdrugstore.com,True,"Janssen, COVID-19 Vaccine, 0.5 mL",40.87045,-73.856218
(917) 830-0600,Lucias Pharmacy #MS1005678,2090 HYLAN BLVD,Staten Island,NY,10306,http://www.luciaspharmacy.com,True,"Janssen, COVID-19 Vaccine, 0.5 mL",40.579081,-74.100538
(718) 232-8277,WELLNESS PHARMACY INC #MS1006265,217 KINGS HWY,BROOKLYN,NY,11223-1106,,True,"Moderna, COVID-19 pediatric vaccine, 25mcg/.25 ml",40.605666,-73.98342
917-521-7814,Rite Aid #RA102727,1510 SAINT NICHOLAS AVENUE,NEW YORK,NY,10033-3124,https://www.riteaid.com,True,"Pfizer-BioNTech, COVID-19 Vaccine, 30 mcg/0.3mL, tris-sucrose",40.852126,-73.931344
(212) 571-2888,Medilane Pharmacy Corp #MS1005094,204 Clinton Street,New York,NY,10002,,True,"Janssen, COVID-19 Vaccine, 0.5 mL",40.713753000000004,-73.986974
(718) 232-8277,WELLNESS PHARMACY INC #MS1006265,217 KINGS HWY,BROOKLYN,NY,11223-1106,,True,"Pfizer-BioNTech, COVID-19 Vaccine, 30 mcg/0.3mL, tris-sucrose",40.605666,-73.98342
(718) 384-7901,UNITED PHARMACY #MS1006206,556 GRAND ST,BROOKLYN,NY,11211-4386,,True,"Pfizer-BioNTech, COVID-19 Vaccine, 10 mcg/0.2 mL, tris-sucrose",40.711001,-73.94950899999999
(718) 492-1500,4th Avenue Pharmacy #MS1005633,5002 4th Avenue,Brooklyn,NY,11220-1814,,,"Moderna, COVID-19 Vaccine, 100mcg/0.5mL 10 dose",40.646507,-74.012974
000-000-0000,Rite Aid #RA101711,408 GRAND STREET,NEW YORK,NY,10002-4702,https://www.riteaid.com,True,"Janssen, COVID-19 Vaccine, 0.5 mL",40.716259,-73.986222
(718) 339-3400,SMART CHOICE PHARMACY #MS1000451,259 AVENUE X,BROOKLYN,NY,11223-5939,,True,"Janssen, COVID-19 Vaccine, 0.5 mL",40.59046,-73.973338
718-975-8555,TOP CARE PHARMACY RX LLC #MS1006226,380 RALPH AVE,BROOKLYN,NY,11233-3918,,,"Moderna, COVID-19 Vaccine, 100mcg/0.5mL 10 dose",40.675845,-73.922227
718-378-4600,Rite Aid #RA107906,840 WESTCHESTER AVE,BRONX,NY,10459-4001,https://www.riteaid.com,True,"Janssen, COVID-19 Vaccine, 0.5 mL",40.819581,-73.90104000000001
347-281-9221,TAKE CARE PHARMACY INC #MS1005832,2134 STARLING AVE,BRONX,NY,10462-4304,,,"Moderna, COVID-19 Vaccine, 100mcg/0.5mL 10 dose",40.836046,-73.853891
(718) 742-7622,SMARTRX PHARMACY INC #5827184,1706 LEXINGTON AVE,NEW YORK,NY,10029,http://www.smartrxnyc.com,True,"Novavax, COVID-19 Vaccine, 5 mcg/0.5 mL",40.792806,-73.946143
(718) 453-6200,Myrtle Drugs #5803944,1454 Myrtle Avenue,Brooklyn,NY,11237,http://myrtledrugs.com,True,"Moderna, COVID-19 Vaccine, 100mcg/0.5mL 10 dose",40.698831,-73.916668
(718) 446-2068,AL KOSTO PHARMACY INC #MS1006203,37-65 90TH STREET,JACKSON HEIGHTS,NY,11372,,True,"Janssen, COVID-19 Vaccine, 0.5 mL",40.748675,-73.876343
718-803-3025,Stop & Shop #509,74-17 GRAND AVENUE,ELMHURST,NY,11373,https://stopandshopsched.rxtouch.com/rbssched/program/wellness,True,"Janssen, COVID-19 Vaccine, 0.5 mL",40.731133,-73.887295
212-795-3218,Rite Aid #RA107759,1033 ST NICHOLAS AVENUE,NEW YORK,NY,10032-3806,https://www.riteaid.com,True,"Pfizer-BioNTech, COVID-19 Vaccine, 10 mcg/0.2 mL, tris-sucrose",40.83602,-73.94018299999999
718-392-8474,Rite Aid #RA104858,46-12 GREENPOINT AVENUE,SUNNYSIDE,NY,11104-1708,https://www.riteaid.com,True,"Moderna, COVID-19 Vaccine, 100mcg/0.5mL 10 dose",40.742084999999996,-73.918392
(212) 877-3480,Apthorp Pharmacy #MS1005112,2191 Broadway,NEW YORK,NY,10024,http://www.apthorprx.com,True,"Moderna, COVID-19 Vaccine, 50 mcg/0.50 mL",40.783086,-73.980937
718-803-3025,Stop & Shop #509,74-17 GRAND AVENUE,ELMHURST,NY,11373,https://stopandshopsched.rxtouch.com/rbssched/program/wellness,True,"Moderna, COVID-19 Vaccine, 100mcg/0.5mL 10 dose",40.731133,-73.887295
(718) 969-3300,AVONORA INC #5829760,14901 UNION TURNPIKE,FLUSHING,NY,11367,,True,"Moderna, COVID-19 pediatric vaccine, 25mcg/.25 ml",40.718798,-73.813692
718-768-9567,Rite Aid #RA104935,249 7TH AVENUE,BROOKLYN,NY,11215-3610,https://www.riteaid.com,True,"Janssen, COVID-19 Vaccine, 0.5 mL",40.669025,-73.979416
(718) 680-9855,BEST CARE PHARMACY #332502,8510 3RD AVENUE,BROOKLYN,NY,11209,https://bestcarepharmacy.com/,True,"Pfizer-BioNTech, COVID-19 Vaccine, 10 mcg/0.2 mL, tris-sucrose",40.624089,-74.030999
718-565-1473,Rite Aid #RA103984,82-13 37TH AVENUE,JACKSON HEIGHTS,NY,11372-7011,https://www.riteaid.com,True,"Moderna, COVID-19 Vaccine, 100mcg/0.5mL 10 dose",40.750019,-73.883899
000-000-0000,Rite Aid #RA101711,408 GRAND STREET,NEW YORK,NY,10002-4702,https://www.riteaid.com,True,"Pfizer-BioNTech, COVID-19 Vaccine, 10 mcg/0.2 mL, tris-sucrose",40.716259,-73.986222
(718) 779-2221,Vida Care Pharmacy LLC #MS1005570,37-64 90th Street,Jackson Heights,NY,11372-7830,,True,"Pfizer-BioNTech, COVID-19 Vaccine, 10 mcg/0.2 mL, tris-sucrose",40.74872,-73.876767
718-392-8474,Rite Aid #RA104858,46-12 GREENPOINT AVENUE,SUNNYSIDE,NY,11104-1708,https://www.riteaid.com,True,"Pfizer-BioNTech, COVID-19 Vaccine, 30 mcg/0.3mL, tris-sucrose",40.742084999999996,-73.918392
(718) 742-7622,SMARTRX PHARMACY INC #5827184,1706 LEXINGTON AVE,NEW YORK,NY,10029,http://www.smartrxnyc.com,True,"Pfizer-BioNTech, COVID-19 Vaccine, 3 mcg/0.2 mL, tris-sucrose",40.792806,-73.946143
(347) 599-1008,DOWNTOWN RX PHARMACY #MS1006490,180 ATLANTIC AVE,BROOKLYN,NY,11201-5604,https://www.downtownrxpharmacy.com/,True,"Pfizer-BioNTech, COMIRNATY, 30 mcg/0.3 mL, tris-sucrose",40.689813,-73.993544
718-829-6808,Rite Aid #RA110539,2748 EAST. TREMONT AVE.,BRONX,NY,10461-2808,https://www.riteaid.com,True,"Moderna, COVID-19 Vaccine, 100mcg/0.5mL 10 dose",40.841796,-73.844511
212-360-5530,Rite Aid #RA107767,1951 FIRST AVENUE,NEW YORK,NY,10029-6419,https://www.riteaid.com,True,"Pfizer-BioNTech, COVID-19 Vaccine, 10 mcg/0.2 mL, tris-sucrose",40.786011,-73.94296700000001
(347) 533-4737,subhan pharmacy inc #MS1001515,1067 coney island ave,BROOKLYN,NY,11230-2372,,True,"Moderna, COVID-19 Vaccine, 100mcg/0.5mL 10 dose",40.631552,-73.96623199999999
(718) 393-5555,PARK CHEMISTS LLC #MS1005421,164 5TH AVE,BROOKLYN,NY,11217-2696,http://www.parkchemistsrx.com,True,"Pfizer-BioNTech, COVID-19 Vaccine, 10 mcg/0.2 mL, tris-sucrose",40.677859000000005,-73.979762
718-328-2800,BRONX SPECIALTY PHARMACY #MS1006147,940 A SOUTHERN BLVD,BRONX,NY,10459-3794,,,"Janssen, COVID-19 Vaccine, 0.5 mL",40.821395,-73.891281
(718) 339-3400,SMART CHOICE PHARMACY #MS1000451,259 AVENUE X,BROOKLYN,NY,11223-5939,,True,"Pfizer-BioNTech, COVID-19 Vaccine, 10 mcg/0.2 mL, tris-sucrose",40.59046,-73.973338
(718) 779-2221,Vida Care Pharmacy LLC #MS1005570,37-64 90th Street,Jackson Heights,NY,11372-7830,,True,"Pfizer-BioNTech, COVID-19 Vaccine, 3 mcg/0.2 mL, tris-sucrose",40.74872,-73.876767
718-803-3025,Stop & Shop #509,74-17 GRAND AVENUE,ELMHURST,NY,11373,https://stopandshopsched.rxtouch.com/rbssched/program/wellness,True,"Pfizer-BioNTech, COVID-19 Vaccine, 3 mcg/0.2 mL, tris-sucrose",40.731133,-73.887295
212-929-6915,Rite Aid #RA110531,195 8TH AVENUE,NEW YORK,NY,10011-1602,https://www.riteaid.com,True,"Janssen, COVID-19 Vaccine, 0.5 mL",40.743363,-74.00019499999999
(718) 782-7539,Medly Pharmacy #MS1005180,31 Debevoise Street,Brooklyn,NY,11206,http://www.medlypharmacy.com,True,"Janssen, COVID-19 Vaccine, 0.5 mL",40.70191,-73.941637
(718) 299-0299,Antigua Local Pharmacy #582955,1961 Southern Blvd,Bronx,NY,10460,http://antigualocalpharmacy.com,True,"Janssen, COVID-19 Vaccine, 0.5 mL",40.843123999999996,-73.885773
(718) 855-2292,MYRTLE DRUG CARE #MS1002795,355 MYRTLE AVE,BROOKLYN,NY,11205-3216,,True,"Moderna, COVID-19 Vaccine, 100mcg/0.5mL 10 dose",40.693397999999995,-73.972087
(718) 827-7528,AMIABLE PHARMACY #MS1005775,1108 LIBERTY AVE,BROOKLYN,NY,11208-2922,http://amiableph.com,True,"Pfizer-BioNTech, COVID-19 Vaccine, 30 mcg/0.3mL, tris-sucrose",40.678360999999995,-73.86839300000001
000-000-0000,Rite Aid #RA103363,650 CASTLE HILL AVENUE,BRONX,NY,10473-1402,https://www.riteaid.com,True,"Pfizer-BioNTech, COVID-19 Vaccine, 10 mcg/0.2 mL, tris-sucrose",40.81992,-73.847512
(718) 888-0101,SEOUL PHARMACY INC #MS1005661,149-03 NORTHERN BLVD,FLUSHING,NY,11354-4342,https://seoul-pharmacy.business.site/,True,"Janssen, COVID-19 Vaccine, 0.5 mL",40.765583,-73.817104
(718) 782-7539,Medly Pharmacy #MS1005180,31 Debevoise Street,Brooklyn,NY,11206,http://www.medlypharmacy.com,True,"Moderna, COVID-19 Vaccine, 100mcg/0.5mL 10 dose",40.70191,-73.941637
212-677-0214,Walgreens Co. #6159,145 4TH AVE,NEW YORK,NY,10003-4906,https://www.walgreens.com,True,"Pfizer-BioNTech, COVID-19 Vaccine, 10 mcg/0.2 mL, tris-sucrose",40.73395,-73.989592
(718) 854-7722,Quickaid Pharmacy #MS1005147,3814 13th Avenue,Brooklyn,NY,11218-3604,,True,"Pfizer-BioNTech, COVID-19 Vaccine, 30 mcg/0.3mL, tris-sucrose",40.640984,-73.986228
(718) 854-7722,Quickaid Pharmacy #MS1005147,3814 13th Avenue,Brooklyn,NY,11218-3604,,True,"Janssen, COVID-19 Vaccine, 0.5 mL",40.640984,-73.986228
(718) 543-6868,Regal Pharmacy #MS1005342,558 West 235 Street,Bronx,NY,10463-1709,,True,"Moderna, COVID-19 Vaccine, 100mcg/0.5mL 10 dose",40.885490999999995,-73.90983100000001
718-641-4400,MEERAJ PHARMACY INC #MS1000414,115-17 LIBERTY AVE,SOUTH RICHMOND HILL,NY,11419-1901,,,"Pfizer-BioNTech, COVID-19 Vaccine, 10 mcg/0.2 mL, tris-sucrose",40.686018,-73.82718
718-631-8200,Rite Aid #RA110592,43-20 BELL BLVD.,BAYSIDE,NY,11361-2865,https://www.riteaid.com,True,"Janssen, COVID-19 Vaccine, 0.5 mL",40.760715999999995,-73.769987
(718) 969-3300,AVONORA INC #5829760,14901 UNION TURNPIKE,FLUSHING,NY,11367,,True,"Novavax, COVID-19 Vaccine, 5 mcg/0.5 mL",40.718798,-73.813692
(718) 224-3233,DANA PHARMACY INC #MS1000428,248-12 NORTHERN BLVD 1C,LITTLE NECK,NY,11362-1207,,True,"Pfizer-BioNTech, COVID-19 Vaccine, 10 mcg/0.2 mL, tris-sucrose",40.766931,-73.73873
718-406-9196,Baron Specialty Pharmacy #MS1005499,9305 37TH AVE,Jackson Heights,NY,11372,,,"Janssen, COVID-19 Vaccine, 0.5 mL",40.751083,-73.873837
(718) 388-4588,Katz Drugs #MS1005065,76 Graham Ave,Brooklyn,NY,11206-4077,http://WWW.Katzpharmacy.com,True,"Moderna, COVID-19 Vaccine, 100mcg/0.5mL 10 dose",40.703594,-73.942388
(718) 753-4900,Friends Pharmacy Inc #MS1005346,342 Kings Hwy 1st flr,Brooklyn,NY,11223-1478,,True,"Janssen, COVID-19 Vaccine, 0.5 mL",40.604706,-73.9776
718-565-1473,Rite Aid #RA103984,82-13 37TH AVENUE,JACKSON HEIGHTS,NY,11372-7011,https://www.riteaid.com,True,"Pfizer-BioNTech, COVID-19 Vaccine, 3 mcg/0.2 mL, tris-sucrose",40.750019,-73.883899
718-643-9505,Walgreens Co. #14498,559 FULTON ST,BROOKLYN,NY,11201-5309,https://www.walgreens.com,True,"Moderna, COVID-19 Vaccine, 100mcg/0.5mL 10 dose",40.689609000000004,-73.98239699999999
718-849-7777,Rite Aid #RA104610,89-10 JAMAICA AVENUE,WOODHAVEN,NY,11421-2040,https://www.riteaid.com,True,"Janssen, COVID-19 Vaccine, 0.5 mL",40.692503,-73.855115
212-787-2903,Rite Aid #RA104885,210-20 AMSTERDAM AVENUE,NEW YORK,NY,10023-5005,https://www.riteaid.com,True,"Moderna, COVID-19 Vaccine, 100mcg/0.5mL 10 dose",40.777139,-73.982955
718-379-8022,Rite Aid #RA102669,2063 BARTOW AVENUE,BRONX,NY,10475-4613,https://www.riteaid.com,True,"Janssen, COVID-19 Vaccine, 0.5 mL",40.870219,-73.82840300000001
718-667-7733,DONGAN HILLS PHARMACY #332327,1560 RICHMOND RD,STATEN ISLAND,NY,10304,,,"Janssen, COVID-19 Vaccine, 0.5 mL",40.591553000000005,-74.10068000000001
718-365-9354,Walgreens Co. #14459,58 E FORDHAM RD,BRONX,NY,10468-5441,https://www.walgreens.com,True,"Pfizer-BioNTech, COVID-19 Vaccine, 10 mcg/0.2 mL, tris-sucrose",40.86205,-73.899928
(718) 559-0887,Nostrand Health Pharmacy #MS1006139,3901 Nostrand Ave.,Brooklyn,NY,11235-2106,,True,"Janssen, COVID-19 Vaccine, 0.5 mL",40.589081,-73.93939499999999
718-968-1584,Rite Aid #RA103888,9738 SEA VIEW AVENUE,BROOKLYN,NY,11236-5516,https://www.riteaid.com,True,"Moderna, COVID-19 Vaccine, 100mcg/0.5mL 10 dose",40.634109,-73.888261
347-725-4953,VIDA PHARMACY #MS1006225,172 BUSHWICK AVE,BROOKLYN,NY,11206-1604,,,"Pfizer-BioNTech, COVID-19 Vaccine, 30 mcg/0.3mL, tris-sucrose",40.709706,-73.94035600000001
(718) 893-5700,FIRST AID PHARMACY #MS1005153,921 E TREMONT AVE,BRONX,NY,10460,,True,"Moderna, COVID-19 Vaccine, 100mcg/0.5mL 10 dose",40.842068,-73.883495
(718) 782-7539,Medly Pharmacy #MS1005180,31 Debevoise Street,Brooklyn,NY,11206,http://www.medlypharmacy.com,True,"Moderna, COVID-19 pediatric vaccine, 25mcg/.25 ml",40.70191,-73.941637
718-654-2200,OVAL PHARMACY #330242,255 E GUN HILL ROAD,BRONX,NY,10467,http://www.ovalpharmacy.com,True,"Janssen, COVID-19 Vaccine, 0.5 mL",40.87995,-73.875757
212-213-9887,Rite Aid #RA104971,550 SECOND AVENUE,NEW YORK,NY,10016-6307,https://www.riteaid.com,True,"Janssen, COVID-19 Vaccine, 0.5 mL",40.742464,-73.977071
718-418-9700,COLOMBO'S PHARMACY #332646,75-51 METROPOLITAN AVE,MIDDLE VILLAGE,NY,11379,http://colombospharmacy.com,,"Moderna, COVID-19 Vaccine, 100mcg/0.5mL 10 dose",40.713271,-73.87570600000001
718-676-4405,PRIME HEALTH PHARMACY LLC #MS1006227,1417 BEDFORD AVE,BROOKLYN,NY,11216-4843,,,"Moderna, COVID-19 Vaccine, 100mcg/0.5mL 10 dose",40.674687,-73.953455
(718) 554-4016,PRO CARE PHARMACY #MS1002686,3927 AMBOY RD,STATEN ISLAND,NY,10308-2421,,True,"Janssen, COVID-19 Vaccine, 0.5 mL",40.55158,-74.149501
(212) 414-9755,NEW LONDON SPECIALTY PHARMACY #MS1000831,246 8TH AVENUE,NEW YORK,NY,10011,,True,"Moderna, COVID-19 Vaccine, 100mcg/0.5mL 10 dose",40.744887,-73.998457
(718) 339-3400,SMART CHOICE PHARMACY #MS1000451,259 AVENUE X,BROOKLYN,NY,11223-5939,,True,"Moderna, COVID-19 Vaccine, 100mcg/0.5mL 10 dose",40.59046,-73.973338
(718) 742-7622,SMARTRX PHARMACY INC #5827184,1706 LEXINGTON AVE,NEW YORK,NY,10029,http://www.smartrxnyc.com,True,"Pfizer-BioNTech, COVID-19 Vaccine, 10 mcg/0.2 mL, tris-sucrose",40.792806,-73.946143
718-522-2991,Rite Aid #RA104864,101 CLINTON STREET SPC 1,BROOKLYN,NY,11201-4370,https://www.riteaid.com,True,"Janssen, COVID-19 Vaccine, 0.5 mL",40.692935999999996,-73.99284300000001
718-940-3461,Rite Aid #RA104679,2819 CHURCH AVENUE,BROOKLYN,NY,11226-4168,https://www.riteaid.com,True,"Janssen, COVID-19 Vaccine, 0.5 mL",40.651037,-73.950631
(212) 662-6630,TOWN DRUG and SURGICAL #MS1005260,1009 COLUMBUS AVENUE,NEW YORK,NY,10025,,True,"Janssen, COVID-19 Vaccine, 0.5 mL",40.801471,-73.960978
(718) 269-4000,Square Pharmacy Inc. #MS1005532,8400 Flatlands Ave. Brooklyn NY 11236,Brooklyn,NY,11236-3508,,True,"Pfizer-BioNTech, COVID-19 Vaccine, 30 mcg/0.3mL, tris-sucrose",40.637152,-73.91041899999999
(718) 676-6445,El Azar Pharmacy #MS1005355,464 Avenue U,Brooklyn,NY,11223-4011,,True,"Janssen, COVID-19 Vaccine, 0.5 mL",40.597440999999996,-73.966918
212-360-5530,Rite Aid #RA107767,1951 FIRST AVENUE,NEW YORK,NY,10029-6419,https://www.riteaid.com,True,"Moderna, COVID-19 Vaccine, 100mcg/0.5mL 10 dose",40.786011,-73.94296700000001
(347) 899-8020,KING COMMUNITY PHARMACY INC. #MS1000292,161 DREISER LOOP,BRONX,NY,10475-2703,,True,"Moderna, COVID-19 Vaccine, 100mcg/0.5mL 10 dose",40.876696,-73.829686
(718) 437-4699,advantage pharmacy #MS1005098,4910 ft hamilton pkwy,brooklyn,NY,11219,,True,"Janssen, COVID-19 Vaccine, 0.5 mL",40.638326,-73.998165
000-000-0000,Rite Aid #RA104215,1535 2ND AVENUE,NEW YORK,NY,10075-0504,https://www.riteaid.com,True,"Janssen, COVID-19 Vaccine, 0.5 mL",40.773944,-73.954944
000-000-0000,Rite Aid #RA103363,650 CASTLE HILL AVENUE,BRONX,NY,10473-1402,https://www.riteaid.com,True,"Janssen, COVID-19 Vaccine, 0.5 mL",40.81992,-73.847512
(718) 429-2140,Hopkins Drugs #5812993,6319 Roosevelt Avenue,Woodside,NY,11377,http://www.myhopkinsdrugs.com,True,"Janssen, COVID-19 Vaccine, 0.5 mL",40.746125,-73.900338
7182528535,ShopRite Pharmacy #191471,1080 MCDONALD AVE,BROOKLYN,NY,11230,https://vaccines.shoprite.com/,True,"Janssen, COVID-19 Vaccine, 0.5 mL",40.626740000000005,-73.97694200000001
718-779-6431,Walgreens Co. #19959,5801 QUEENS BLVD,WOODSIDE,NY,11377-7752,https://www.walgreens.com,True,"Moderna, COVID-19 Vaccine, 100mcg/0.5mL 10 dose",40.74221,-73.906818
(718) 261-8440,TRAYMORE CHEMISTS #MS1005223,110-80 QUEENS BLVD,FOREST HILLS,NY,11375-6345,,True,"Janssen, COVID-19 Vaccine, 0.5 mL",40.718601,-73.838617
718-726-0801,Walgreens Co. #19615,47-07 BROADWAY,ASTORIA,NY,11103-1629,https://www.walgreens.com,True,"Janssen, COVID-19 Vaccine, 0.5 mL",40.756363,-73.91289499999999
(212) 245-8469,Arrow Pharmacy #MS1005054,883 9th Ave,New York,NY,10019-1797,https://www.arrowpharmacy.com/,True,"Janssen, COVID-19 Vaccine, 0.5 mL",40.768186,-73.985776
212-828-8664,Rite Aid #RA104688,1849 2ND AVENUE,NEW YORK,NY,10128-3864,https://www.riteaid.com,True,"Janssen, COVID-19 Vaccine, 0.5 mL",40.784233,-73.94768499999999
(718) 206-0271,Global United Pharmacy #MS1005656,179-42 Hillside Ave,Jamaica,NY,11432-4653,,,"Janssen, COVID-19 Vaccine, 0.5 mL",40.712629,-73.78287900000001
212-581-0602,Walgreens Co. #14403,619 9TH AVE,NEW YORK,NY,10036-3710,https://www.walgreens.com,True,"Janssen, COVID-19 Vaccine, 0.5 mL",40.759691,-73.992078
212-678-7893,Walgreens Co. #14214,2760-62 BROADWAY,NEW YORK,NY,10025-2805,https://www.walgreens.com,True,"Moderna, COVID-19 Vaccine, 100mcg/0.5mL 10 dose",40.801404,-73.967393
(718) 742-7622,SMARTRX PHARMACY INC #5827184,1706 LEXINGTON AVE,NEW YORK,NY,10029,http://www.smartrxnyc.com,True,"Moderna, COVID-19 pediatric vaccine, 25mcg/.25 ml",40.792806,-73.946143
(718) 392-8049,LONG ISLAND CITY CHEMISTS #MS1000251,30-12 36TH AVE,LONG ISLAND CITY,NY,11106-2315,,True,"Pfizer-BioNTech, COVID-19 Vaccine, 10 mcg/0.2 mL, tris-sucrose",40.756671999999995,-73.930205
718-843-7001,Rite Aid #RA104856,122-02 LIBERTY AVENUE,SOUTH RICHMOND HILL,NY,11419-2114,https://www.riteaid.com,True,"Janssen, COVID-19 Vaccine, 0.5 mL",40.687186,-73.82118299999999
(718) 554-4016,PRO CARE PHARMACY #MS1002686,3927 AMBOY RD,STATEN ISLAND,NY,10308-2421,,True,"Moderna, COVID-19 Vaccine, 100mcg/0.5mL 10 dose",40.55158,-74.149501
718-231-6677,Rite Aid #RA103858,901 EAST GUN HILL ROAD,BRONX,NY,10469-3707,https://www.riteaid.com,True,"Janssen, COVID-19 Vaccine, 0.5 mL",40.875537,-73.859602
(212) 987-3602,Taino pharmacy #MS1005417,2403 2nd ave,NEW YORK,NY,10035,,True,"Moderna, COVID-19 Vaccine, 100mcg/0.5mL 10 dose",40.801747999999996,-73.934673
(718) 373-4100,WESTSIDE PHARMACY #MS1005183,210 AVE U,BROOKLYN,NY,11223,,True,"Janssen, COVID-19 Vaccine, 0.5 mL",40.596405,-73.976173
(917) 565-8666,SUNNING PHARMACY INC. #MS1001027,1836 Hylan blvd suite B,Staten Island,NY,10305-1935,https://book-ch.appointment-plus.com/d0vrgn3v,True,"Janssen, COVID-19 Vaccine, 0.5 mL",40.584302,-74.09421800000001
212-791-5795,Rite Aid #RA104202,7 MADISON STREET,NEW YORK,NY,10038-1202,https://www.riteaid.com,True,"Moderna, COVID-19 Vaccine, 100mcg/0.5mL 10 dose",40.711899,-74.00030600000001
718-258-1812,Rite Aid #RA110575,2577 NOSTRAND AVENUE,BROOKLYN,NY,11210-4640,https://www.riteaid.com,True,"Moderna, COVID-19 Vaccine, 100mcg/0.5mL 10 dose",40.621346,-73.94553499999999
(212) 481-6600,Healthsource Pharmacy #3328083,120 East 34th Sreet,New York,NY,10016,https://healthsourcepharmacy.com,True,"Janssen, COVID-19 Vaccine, 0.5 mL",40.746469,-73.98030200000001
(718) 366-6171,Myrtle Drugs inc #MS1005707,55-18 Myrtle ave,Ridgewood,NY,11385-3551,https://myrtle-drugs.business.site/,True,"Pfizer-BioNTech, COVID-19 Vaccine, 10 mcg/0.2 mL, tris-sucrose",40.699738,-73.9078
(646) 869-8881,CORNER CHEMISTS PHARMACY LLC #MS1002534,11 HENRY ST,NEW YORK,NY,10038-0000,,True,"Moderna, COVID-19 Vaccine, 100mcg/0.5mL 10 dose",40.713051,-73.997226
212-360-5530,Rite Aid #RA107767,1951 FIRST AVENUE,NEW YORK,NY,10029-6419,https://www.riteaid.com,True,"Janssen, COVID-19 Vaccine, 0.5 mL",40.786011,-73.94296700000001
(347) 963-9700,RX SOLUTIONS PHARMACY INC #MS1005618,2 E 167TH ST,BRONX,NY,10452,www.rxsolutionspharmacyinc.com,True,"Pfizer-BioNTech, COVID-19 Vaccine, 10 mcg/0.2 mL, tris-sucrose",40.835906,-73.92224399999999
718-829-6808,Rite Aid #RA110539,2748 EAST. TREMONT AVE.,BRONX,NY,10461-2808,https://www.riteaid.com,True,"Pfizer-BioNTech, COVID-19 Vaccine, 10 mcg/0.2 mL, tris-sucrose",40.841796,-73.844511
212-727-9620,Rite Aid #RA104196,188 9TH AVENUE,NEW YORK,NY,10011-4917,https://www.riteaid.com,True,"Moderna, COVID-19 Vaccine, 100mcg/0.5mL 10 dose",40.745505,-74.0016
718-968-1584,Rite Aid #RA103888,9738 SEA VIEW AVENUE,BROOKLYN,NY,11236-5516,https://www.riteaid.com,True,"Pfizer-BioNTech, COVID-19 Vaccine, 30 mcg/0.3mL, tris-sucrose",40.634109,-73.888261
212-925-6088,FAMILY CHOICE PHARMACY CORP #MS1005909,13-17 ELIZABETH ST UNIT10,NEW YORK,NY,10013-4149,,,"Pfizer-BioNTech, COVID-19 Vaccine, 10 mcg/0.2 mL, tris-sucrose",40.716055,-73.997548
(718) 708-5400,gig pharmacy inc #MS1005616,3405 jerome ave,bronx,NY,10467-1049,http://www.gigpharmacyinc.com,True,"Pfizer-BioNTech, COVID-19 Vaccine, 10 mcg/0.2 mL, tris-sucrose",40.880828,-73.883708
718-641-4400,MEERAJ PHARMACY INC #MS1000414,115-17 LIBERTY AVE,SOUTH RICHMOND HILL,NY,11419-1901,,,"Pfizer-BioNTech, COVID-19 Vaccine, 30 mcg/0.3mL, tris-sucrose",40.686018,-73.82718
(718) 299-2416,Asencio Pharmacy inc,154 E 174th St Bronx,BRONX,NY,10457,,,"Janssen, COVID-19 Vaccine, 0.5 mL",40.844745,-73.90959000000001
718-278-2100,Rite Aid #RA104865,32-87 STEINWAY STREET,ASTORIA,NY,11103-4031,https://www.riteaid.com,True,"Janssen, COVID-19 Vaccine, 0.5 mL",40.756731,-73.92047
(718) 684-4430,PEACE PHARMACY INC #MS1005957,2366 UNIVERSITY AVE,BRONX,NY,10468-6223,,True,"Pfizer-BioNTech, COVID-19 Vaccine, 10 mcg/0.2 mL, tris-sucrose",40.862478,-73.904682
000-000-0000,Rite Aid #RA103883,5102 13TH AVENUE,BROOKLYN,NY,11219-3520,https://www.riteaid.com,True,"Moderna, COVID-19 Vaccine, 100mcg/0.5mL 10 dose",40.633860999999996,-73.99360899999999
(718) 703-1800,HUMDARD PHARMACY AND FOOD MART #MS1005650,949 CONY ISLAND AVE,BROOKLYN,NY,11230,,True,"Moderna, COVID-19 Vaccine, 100mcg/0.5mL 10 dose",40.634339000000004,-73.967108
(718) 384-7901,UNITED PHARMACY #MS1006206,556 GRAND ST,BROOKLYN,NY,11211-4386,,True,"Janssen, COVID-19 Vaccine, 0.5 mL",40.711001,-73.94950899999999
(212) 439-4718,Wellness Pharmacy #MS1005548,144 W 72nd Street,New York,NY,10023-3344,http://wellnesspharmacy72.com,True,"Janssen, COVID-19 Vaccine, 0.5 mL",40.777913,-73.980501
(718) 564-2358,LIFE CARE PHARMACY INC #MS1005325,1337 NOSTRAND AVE,BROOKLYN,NY,11226,,True,"Janssen, COVID-19 Vaccine, 0.5 mL",40.654415,-73.949782
(718) 291-0717,As-Salam Pharmacy Inc #MS1005348,147-26 Hillside Ave,Jamaica,NY,11435-3329,,True,"Moderna, COVID-19 Vaccine, 100mcg/0.5mL 10 dose",40.705813,-73.808581
(347) 533-4737,subhan pharmacy inc #MS1001515,1067 coney island ave,BROOKLYN,NY,11230-2372,,True,"Pfizer-BioNTech, COVID-19 Vaccine, 30 mcg/0.3mL, tris-sucrose",40.631552,-73.96623199999999
718-726-0801,Walgreens Co. #19615,47-07 BROADWAY,ASTORIA,NY,11103-1629,https://www.walgreens.com,True,"Pfizer-BioNTech, COVID-19 Vaccine, 10 mcg/0.2 mL, tris-sucrose",40.756363,-73.91289499999999
(212) 926-9800,BROADWAY PHARMACY #MS1001402,3621 BROADWAY,NEW YORK,NY,10031-3201,http://broadwaypharmacyny.com/,True,"Janssen, COVID-19 Vaccine, 0.5 mL",40.829238000000004,-73.948738
(718) 975-4411,PULSE PHARMACY #MS1005514,7 BEDFORD PARK BLVD E,BRONX,NY,10468,,True,"Janssen, COVID-19 Vaccine, 0.5 mL",40.873419,-73.88899
000-000-0000,Rite Aid #RA103883,5102 13TH AVENUE,BROOKLYN,NY,11219-3520,https://www.riteaid.com,True,"Janssen, COVID-19 Vaccine, 0.5 mL",40.633860999999996,-73.99360899999999
(718) 337-8030,HEALTHY LIVING PHARMACY #MS1005508,42-15 CRESENT STREET,LONG ISLAND CITY,NY,11101-4213,http://www.healthylivingpharmacylic.com,True,"Janssen, COVID-19 Vaccine, 0.5 mL",40.750128000000004,-73.940712
(718) 500-3269,RX BOX PHARMACY #MS1003080,3265 RICHMOND AVE,STATEN ISLAND,NY,10312-2123,https://www.yourrxbox.com/,True,"Janssen, COVID-19 Vaccine, 0.5 mL",40.559564,-74.168052
718-264-0319,Walgreens Co. #19215,18616 UNION TPKE,FLUSHING,NY,11366-1734,https://www.walgreens.com,True,"Janssen, COVID-19 Vaccine, 0.5 mL",40.728644,-73.781937
(212) 243-4987,NEW LONDON PHARMACY #MS1000193,246 8TH AVENUE,NEW YORK,NY,10011,,True,"Janssen, COVID-19 Vaccine, 0.5 mL",40.744887,-73.998457
(212) 439-4718,Wellness Pharmacy #MS1005548,144 W 72nd Street,New York,NY,10023-3344,http://wellnesspharmacy72.com,True,"Moderna, COVID-19 Vaccine, 100mcg/0.5mL 10 dose",40.777913,-73.980501
212-582-8525,Walgreens Co. #14115,51 W 51ST ST,NEW YORK,NY,10019-6113,https://www.walgreens.com,True,"Janssen, COVID-19 Vaccine, 0.5 mL",40.76008,-73.978575
718-328-2800,BRONX SPECIALTY PHARMACY #MS1006147,940 A SOUTHERN BLVD,BRONX,NY,10459-3794,,,"Moderna, COVID-19 Vaccine, 100mcg/0.5mL 10 dose",40.821395,-73.891281
(718) 855-2292,MYRTLE DRUG CARE #MS1002795,355 MYRTLE AVE,BROOKLYN,NY,11205-3216,,True,"Janssen, COVID-19 Vaccine, 0.5 mL",40.693397999999995,-73.972087
718-491-0442,Rite Aid #RA104712,9302 3RD AVENUE,BROOKLYN,NY,11209-6802,https://www.riteaid.com,True,"Janssen, COVID-19 Vaccine, 0.5 mL",40.618522999999996,-74.033363
(646) 869-8881,CORNER CHEMISTS PHARMACY LLC #MS1002534,11 HENRY ST,NEW YORK,NY,10038-0000,,True,"Janssen, COVID-19 Vaccine, 0.5 mL",40.713051,-73.997226
(718) 975-4411,PULSE PHARMACY #MS1005514,7 BEDFORD PARK BLVD E,BRONX,NY,10468,,True,"Moderna, COVID-19 Vaccine, 100mcg/0.5mL 10 dose",40.873419,-73.88899
(212) 966-7599,Hester Pharmacy #3358670,153 Hester Street,NEW YORK,NY,10013,,True,"Pfizer-BioNTech, COVID-19 Vaccine, 30 mcg/0.3mL, tris-sucrose",40.717532,-73.99576400000001
(646) 287-1775,homeandhome pharmacy #MS1005665,86-18 whitney ave,elmhurst,NY,11373-3658,,True,"Janssen, COVID-19 Vaccine, 0.5 mL",40.741941,-73.878485
718-365-9354,Walgreens Co. #14459,58 E FORDHAM RD,BRONX,NY,10468-5441,https://www.walgreens.com,True,"Moderna, COVID-19 Vaccine, 100mcg/0.5mL 10 dose",40.86205,-73.899928
347-725-4953,VIDA PHARMACY #MS1006225,172 BUSHWICK AVE,BROOKLYN,NY,11206-1604,,,"Janssen, COVID-19 Vaccine, 0.5 mL",40.709706,-73.94035600000001
(347) 963-9700,RX SOLUTIONS PHARMACY INC #MS1005618,2 E 167TH ST,BRONX,NY,10452,www.rxsolutionspharmacyinc.com,True,"Janssen, COVID-19 Vaccine, 0.5 mL",40.835906,-73.92224399999999
718-727-6400,Rite Aid #RA110535,385 BAY STREET STE 1,STATEN ISLAND,NY,10301-3264,https://www.riteaid.com,True,"Pfizer-BioNTech, COVID-19 Vaccine, 30 mcg/0.3mL, tris-sucrose",40.632519,-74.074945
718-224-2606,Walgreens Co. #19223,3920 BELL BOULEVARD,BAYSIDE,NY,11361-2061,https://www.walgreens.com,True,"Janssen, COVID-19 Vaccine, 0.5 mL",40.764824,-73.771947
(718) 438-3838,8TH AVENUE PHARMACY #MS1005284,5504 8TH AVENUE,BROOKLYN,NY,11220-3516,http://8thavepharmacy.com/,True,"Janssen, COVID-19 Vaccine, 0.5 mL",40.6383,-74.006939
(718) 352-3200,AUBURNDALE PHARMACY #MS1005416,192-15 47TH AVE,FLUSHING,NY,11358-3906,http://auburndalepharmacy.com,True,"Moderna, COVID-19 Vaccine, 100mcg/0.5mL 10 dose",40.752112,-73.788489
(212) 228-2260,ESQUIRE PHARMACY #MS1001214,277 First Ave,New York,NY,10003-2994,,True,"Moderna, COVID-19 Vaccine, 100mcg/0.5mL 10 dose",40.732620000000004,-73.98196999999999
718-258-1812,Rite Aid #RA110575,2577 NOSTRAND AVENUE,BROOKLYN,NY,11210-4640,https://www.riteaid.com,True,"Pfizer-BioNTech, COVID-19 Vaccine, 30 mcg/0.3mL, tris-sucrose",40.621346,-73.94553499999999
212-677-0214,Walgreens Co. #6159,145 4TH AVE,NEW YORK,NY,10003-4906,https://www.walgreens.com,True,"Moderna, COVID-19 Vaccine, 100mcg/0.5mL 10 dose",40.73395,-73.989592
000-000-0000,Rite Aid #RA110573,7501 5TH AVENUE,BROOKLYN,NY,11209-3301,https://www.riteaid.com,True,"Moderna, COVID-19 Vaccine, 100mcg/0.5mL 10 dose",40.629121999999995,-74.022554
718-643-9505,Walgreens Co. #14498,559 FULTON ST,BROOKLYN,NY,11201-5309,https://www.walgreens.com,True,"Janssen, COVID-19 Vaccine, 0.5 mL",40.689609000000004,-73.98239699999999
347-725-4953,VIDA PHARMACY #MS1006225,172 BUSHWICK AVE,BROOKLYN,NY,11206-1604,,,"Moderna, COVID-19 Vaccine, 100mcg/0.5mL 10 dose",40.709706,-73.94035600000001
(718) 255-1717,MAJOR RX PHARMACY #MS1005587,77 02 ROOSEVELT AVE ste C,JACKSON HEIGHTS,NY,11372,,True,"Moderna, COVID-19 Vaccine, 100mcg/0.5mL 10 dose",40.746896,-73.888313
212-795-3218,Rite Aid #RA107759,1033 ST NICHOLAS AVENUE,NEW YORK,NY,10032-3806,https://www.riteaid.com,True,"Pfizer-BioNTech, COVID-19 Vaccine, 30 mcg/0.3mL, tris-sucrose",40.83602,-73.94018299999999
(718) 726-6774,Unique Chemist #MS1005643,25-24 30th Avenue,Astoria,NY,11102,,True,"Moderna, COVID-19 Vaccine, 100mcg/0.5mL 10 dose",40.768039,-73.924465
(212) 427-4382,Upper Madison Drugs #3382190,1590 MADISON AVE,New York,NY,10029,http://BLISSPHARMACYINC.COM,True,"Moderna, COVID-19 Vaccine, 100mcg/0.5mL 10 dose",40.793574,-73.948101
718-779-6431,Walgreens Co. #19959,5801 QUEENS BLVD,WOODSIDE,NY,11377-7752,https://www.walgreens.com,True,"Janssen, COVID-19 Vaccine, 0.5 mL",40.74221,-73.906818
718-892-2288,Walgreens Co. #19458,2158 WHITE PLAINS RD,BRONX,NY,10462-1406,https://www.walgreens.com,True,"Janssen, COVID-19 Vaccine, 0.5 mL",40.855121000000004,-73.867359
(718) 938-0816,WHITMAN PHARMACY #MS1005468,329A MYRTLE AVE,BROOKLYN,NY,11205,,True,"Janssen, COVID-19 Vaccine, 0.5 mL",40.693397,-73.973787
(718) 388-4588,Katz Drugs #MS1005065,76 Graham Ave,Brooklyn,NY,11206-4077,http://WWW.Katzpharmacy.com,True,"Pfizer-BioNTech, COVID-19 Vaccine, 30 mcg/0.3mL, tris-sucrose",40.703594,-73.942388
(718) 224-3233,DANA PHARMACY INC #MS1000428,248-12 NORTHERN BLVD 1C,LITTLE NECK,NY,11362-1207,,True,"Janssen, COVID-19 Vaccine, 0.5 mL",40.766931,-73.73873
212-977-1562,Walgreens Co. #14223,661 8TH AVE,NEW YORK,NY,10036-7105,https://www.walgreens.com,True,"Janssen, COVID-19 Vaccine, 0.5 mL",40.757647999999996,-73.989856
(718) 708-5400,gig pharmacy inc #MS1005616,3405 jerome ave,bronx,NY,10467-1049,http://www.gigpharmacyinc.com,True,"Moderna, COVID-19 Vaccine, 100mcg/0.5mL 10 dose",40.880828,-73.883708
708-524-7099,HENDRIX PHARMACY #MS1006487,121 LAFAYETTE AVE,STATEN ISLAND,NY,10301-1249,,,"Moderna, COVID-19 Vaccine, 100mcg/0.5mL 10 dose",40.641897,-74.094895
(718) 316-6766,Medassure Pharmacy,2334 WASHINGTON AVE,BRONX,NY,10458,https://www.picktime.com/Vaccine,,"Pfizer-BioNTech, COVID-19 Vaccine, 10 mcg/0.2 mL, tris-sucrose",40.85605,-73.89216
(212) 222-4400,Ivan Pharmacy #3399400,691 Columbus Avenue,New York,NY,10025,http://IVANPHARMACY.COM,True,"Janssen, COVID-19 Vaccine, 0.5 mL",40.79105,-73.968389
(212) 304-3949,THERESA PHARMACY II #MS1005360,66 NAGLE AVE,NEW YORK,NY,10040,http://www.theresapharmacy.com,True,"Janssen, COVID-19 Vaccine, 0.5 mL",40.860279999999996,-73.928881
718-769-2058,Rite Aid #RA103958,2002 AVENUE  U,BROOKLYN,NY,11229-3908,https://www.riteaid.com,True,"Janssen, COVID-19 Vaccine, 0.5 mL",40.599185999999996,-73.950999
718-378-4600,Rite Aid #RA107906,840 WESTCHESTER AVE,BRONX,NY,10459-4001,https://www.riteaid.com,True,"Pfizer-BioNTech, COVID-19 Vaccine, 30 mcg/0.3mL, tris-sucrose",40.819581,-73.90104000000001
(718) 854-7722,Quickaid Pharmacy #MS1005147,3814 13th Avenue,Brooklyn,NY,11218-3604,,True,"Moderna, COVID-19 Vaccine, 100mcg/0.5mL 10 dose",40.640984,-73.986228
(347) 533-4737,subhan pharmacy inc #MS1001515,1067 coney island ave,BROOKLYN,NY,11230-2372,,True,"Janssen, COVID-19 Vaccine, 0.5 mL",40.631552,-73.96623199999999
000-000-0000,Rite Aid #RA110573,7501 5TH AVENUE,BROOKLYN,NY,11209-3301,https://www.riteaid.com,True,"Janssen, COVID-19 Vaccine, 0.5 mL",40.629121999999995,-74.022554
(718) 948-4848,Southshore Pharmacy Corp. #MS1005206,4020 Hylan Blvd,Staten Island,NY,10308-3331,https://forms.ny.gov/s3/vaccine,True,"Pfizer-BioNTech, COVID-19 Vaccine, 10 mcg/0.2 mL, tris-sucrose",40.541483,-74.14620699999999
212-534-9781,Rite Aid #RA104798,2155 THIRD AVENUE,NEW YORK,NY,10035-4707,https://www.riteaid.com,True,"Pfizer-BioNTech, COVID-19 Vaccine, 10 mcg/0.2 mL, tris-sucrose",40.799013,-73.93890999999999
(718) 380-5440,salzman chemists #MS1005285,149-19 union turnpike,flushing,NY,11367-3895,,True,"Janssen, COVID-19 Vaccine, 0.5 mL",40.719038,-73.813118
718-892-2288,Walgreens Co. #19458,2158 WHITE PLAINS RD,BRONX,NY,10462-1406,https://www.walgreens.com,True,"Moderna, COVID-19 Vaccine, 100mcg/0.5mL 10 dose",40.855121000000004,-73.867359
(718) 975-7757,Brooklyn Family Pharmacy #MS1002406,355 ave x,BROOKLYN,NY,11223-5915,,True,"Moderna, COVID-19 Vaccine, 100mcg/0.5mL 10 dose",40.590778,-73.969838
(718) 891-2801,ALL AMERICAN DRUGGISTS #MS1003351,1101 BRIGHTON BEACH AVE,BROOKLYN,NY,11235-5558,,True,"Pfizer-BioNTech, COVID-19 Vaccine, 10 mcg/0.2 mL, tris-sucrose",40.578140000000005,-73.956677
(718) 255-1717,MAJOR RX PHARMACY #MS1005587,77 02 ROOSEVELT AVE ste C,JACKSON HEIGHTS,NY,11372,,True,"Pfizer-BioNTech, COVID-19 Vaccine, 30 mcg/0.3mL, tris-sucrose",40.746896,-73.888313
(718) 437-4699,advantage pharmacy #MS1005098,4910 ft hamilton pkwy,brooklyn,NY,11219,,True,"Moderna, COVID-19 Vaccine, 100mcg/0.5mL 10 dose",40.638326,-73.998165
718-522-2991,Rite Aid #RA104864,101 CLINTON STREET SPC 1,BROOKLYN,NY,11201-4370,https://www.riteaid.com,True,"Moderna, COVID-19 Vaccine, 100mcg/0.5mL 10 dose",40.692935999999996,-73.99284300000001
(718) 392-8049,LONG ISLAND CITY CHEMISTS #MS1000251,30-12 36TH AVE,LONG ISLAND CITY,NY,11106-2315,,True,"Janssen, COVID-19 Vaccine, 0.5 mL",40.756671999999995,-73.930205
212-678-7893,Walgreens Co. #14214,2760-62 BROADWAY,NEW YORK,NY,10025-2805,https://www.walgreens.com,True,"Janssen, COVID-19 Vaccine, 0.5 mL",40.801404,-73.967393
718-726-0801,Walgreens Co. #19615,47-07 BROADWAY,ASTORIA,NY,11103-1629,https://www.walgreens.com,True,"Moderna, COVID-19 Vaccine, 100mcg/0.5mL 10 dose",40.756363,-73.91289499999999
718-465-8046,Rite Aid #RA103865,218-35 HEMPSTEAD AVENUE,QUEENS VILLAGE,NY,11429-1236,https://www.riteaid.com,True,"Janssen, COVID-19 Vaccine, 0.5 mL",40.713989,-73.736983
212-727-3720,Rite Aid #RA104261,501 6TH AVENUE,NEW YORK,NY,10011-8421,https://www.riteaid.com,True,"Moderna, COVID-19 Vaccine, 100mcg/0.5mL 10 doses",40.736481,-73.997835
(212) 439-4718,Wellness Pharmacy #MS1005548,144 W 72nd Street,New York,NY,10023-3344,http://wellnesspharmacy72.com,True,"Pfizer-BioNTech, COVID-19 Vaccine, 10 mcg/0.2 mL, tris-sucrose",40.777913,-73.980501
718-728-9080,Rite Aid #RA110569,32-14 31ST STREET,ASTORIA,NY,11106-2643,https://www.riteaid.com,True,"Moderna, COVID-19 Vaccine, 100mcg/0.5mL 10 dose",40.761553,-73.926108
(718) 655-5558,Scheer Drugs #MS1005353,1343 East Gun Hill Road,Bronx,NY,10469,,True,"Janssen, COVID-19 Vaccine, 0.5 mL",40.870933,-73.846627
(718) 299-0299,Antigua Local Pharmacy #582955,1961 Southern Blvd,Bronx,NY,10460,http://antigualocalpharmacy.com,True,"Moderna, COVID-19 Vaccine, 100mcg/0.5mL 10 dose",40.843123999999996,-73.885773
708-524-7099,HENDRIX PHARMACY #MS1006487,121 LAFAYETTE AVE,STATEN ISLAND,NY,10301-1249,,,"Janssen, COVID-19 Vaccine, 0.5 mL",40.641897,-74.094895
(347) 899-8020,KING COMMUNITY PHARMACY INC. #MS1000292,161 DREISER LOOP,BRONX,NY,10475-2703,,True,"Janssen, COVID-19 Vaccine, 0.5 mL",40.876696,-73.829686
(718) 739-0311,Estates Pharmacy and Surgical Suppl #MS1005405,169-01 hillside avenue,jamaica,NY,11432-4434,,True,"Moderna, COVID-19 Vaccine, 100mcg/0.5mL 10 dose",40.711001,-73.792856
(718) 261-8440,TRAYMORE CHEMISTS #MS1005223,110-80 QUEENS BLVD,FOREST HILLS,NY,11375-6345,,True,"Moderna, COVID-19 Vaccine, 100mcg/0.5mL 10 dose",40.718601,-73.838617
718-667-7733,DONGAN HILLS PHARMACY #332327,1560 RICHMOND RD,STATEN ISLAND,NY,10304,,,"Moderna, COVID-19 Vaccine, 100mcg/0.5mL 10 dose",40.591553000000005,-74.10068000000001
(718) 732-4288,Dba JANNAT PHARMACY #MS1005737,7203 35 th ave,Jackson heights,NY,11372-1137,,True,"Janssen, COVID-19 Vaccine, 0.5 mL",40.75094,-73.893823
000-000-0000,Rite Aid #RA101711,408 GRAND STREET,NEW YORK,NY,10002-4702,https://www.riteaid.com,True,"Moderna, COVID-19 Vaccine, 100mcg/0.5mL 10 dose",40.716259,-73.986222
000-000-0000,Rite Aid #RA104215,1535 2ND AVENUE,NEW YORK,NY,10075-0504,https://www.riteaid.com,True,"Moderna, COVID-19 Vaccine, 100mcg/0.5mL 10 dose",40.773944,-73.954944
(718) 499-7410,Rite-care pharmacy #MS1005058,677 4th Ave,Brooklyn,NY,11232,,True,"Janssen, COVID-19 Vaccine, 0.5 mL",40.66247,-73.995518
(646) 869-8881,CORNER CHEMISTS PHARMACY LLC #MS1002534,11 HENRY ST,NEW YORK,NY,10038-0000,,True,"Pfizer-BioNTech, COVID-19 Vaccine, 10 mcg/0.2 mL, tris-sucrose",40.713051,-73.997226
(718) 676-6445,El Azar Pharmacy #MS1005355,464 Avenue U,Brooklyn,NY,11223-4011,,True,"Moderna, COVID-19 Vaccine, 100mcg/0.5mL 10 dose",40.597440999999996,-73.966918
718-258-1812,Rite Aid #RA110575,2577 NOSTRAND AVENUE,BROOKLYN,NY,11210-4640,https://www.riteaid.com,True,"Janssen, COVID-19 Vaccine, 0.5 mL",40.621346,-73.94553499999999
(347) 879-8144,TRUEMED PHARMACY CORP #MS1005563,2262 WEBSTER AVE,BRONX,NY,10457,,True,"Janssen, COVID-19 Vaccine, 0.5 mL",40.855672,-73.895554
212-795-3218,Rite Aid #RA107759,1033 ST NICHOLAS AVENUE,NEW YORK,NY,10032-3806,https://www.riteaid.com,True,"Janssen, COVID-19 Vaccine, 0.5 mL",40.83602,-73.94018299999999
718-565-1473,Rite Aid #RA103984,82-13 37TH AVENUE,JACKSON HEIGHTS,NY,11372-7011,https://www.riteaid.com,True,"Pfizer-BioNTech, COVID-19 Vaccine, 30 mcg/0.3mL, tris-sucrose",40.750019,-73.883899
(718) 482-8900,BLISS DRUGS INC #MS1000508,4701 QUEENS BLVD,SUNNYSIDE,NY,11104,www.blissdrugs.com,True,"Moderna, COVID-19 Vaccine, 100mcg/0.5mL 10 dose",40.743415,-73.917388
(646) 287-1775,homeandhome pharmacy #MS1005665,86-18 whitney ave,elmhurst,NY,11373-3658,,True,"Pfizer-BioNTech, COVID-19 Vaccine, 10 mcg/0.2 mL, tris-sucrose",40.741941,-73.878485
(718) 944-0862,Emerald Pharmacy #MS1005101,4295 Katonah Avenue,Bronx,NY,10470,http://www.emeraldpharmacy.com,True,"Pfizer-BioNTech, COMIRNATY, 30 mcg/0.3 mL, tris-sucrose",40.898465,-73.867589
(718) 269-4000,Square Pharmacy Inc. #MS1005532,8400 Flatlands Ave. Brooklyn NY 11236,Brooklyn,NY,11236-3508,,True,"Pfizer-BioNTech, COVID-19 Vaccine, 10 mcg/0.2 mL, tris-sucrose",40.637152,-73.91041899999999
347-281-9221,TAKE CARE PHARMACY INC #MS1005832,2134 STARLING AVE,BRONX,NY,10462-4304,,,"Janssen, COVID-19 Vaccine, 0.5 mL",40.836046,-73.853891
718-264-0319,Walgreens Co. #19215,18616 UNION TPKE,FLUSHING,NY,11366-1734,https://www.walgreens.com,True,"Moderna, COVID-19 Vaccine, 100mcg/0.5mL 10 doses",40.728644,-73.781937
212-677-0214,Walgreens Co. #6159,145 4TH AVE,NEW YORK,NY,10003-4906,https://www.walgreens.com,True,"Janssen, COVID-19 Vaccine, 0.5 mL",40.73395,-73.989592
(718) 392-8049,LONG ISLAND CITY CHEMISTS #MS1000251,30-12 36TH AVE,LONG ISLAND CITY,NY,11106-2315,,True,"Moderna, COVID-19 Vaccine, 100mcg/0.5mL 10 dose",40.756671999999995,-73.930205
(718) 466-6551,Perla pharmacy #MS1005336,822 e tremont ave,Bronx,NY,10460-4146,http://www.perlabronx.com,True,"Janssen, COVID-19 Vaccine, 0.5 mL",40.843295,-73.88726
(212) 749-6626,ahma Rx #MS1005386,2381 Frederick Douglass Blvd,New York,NY,10027-1822,http://www.ahmarx.com,True,"Moderna, COVID-19 Vaccine, 100mcg/0.5mL 10 dose",40.812108,-73.950141
(718) 842-3807,MAHESH DRUGS #MS1001607,731 WHITE PLAINS RD,BRONX,NY,10473-2631,,True,"Moderna, COVID-19 Vaccine, 100mcg/0.5mL 10 dose",40.82023,-73.858228
(718) 775-3300,metro drugs #MS1005111,13402 JAMAICA AVE STE A,RICHMOND HILL,NY,11418,http://www.metrodrugsrx.com,True,"Janssen, COVID-19 Vaccine, 0.5 mL",40.702168,-73.818511
718-940-3461,Rite Aid #RA104679,2819 CHURCH AVENUE,BROOKLYN,NY,11226-4168,https://www.riteaid.com,True,"Moderna, COVID-19 Vaccine, 100mcg/0.5mL 10 dose",40.651037,-73.950631
718-403-9371,Rite Aid #RA110584,320 SMITH STREET,BROOKLYN,NY,11231-4608,https://www.riteaid.com,True,"Janssen, COVID-19 Vaccine, 0.5 mL",40.681309999999996,-73.994527
718-236-0146,Walgreens Co. #17814,6101 18TH AVE,BROOKLYN,NY,11204-2302,https://www.walgreens.com,True,"Janssen, COVID-19 Vaccine, 0.5 mL",40.621128000000006,-73.987824
(718) 732-4288,Dba JANNAT PHARMACY #MS1005737,7203 35 th ave,Jackson heights,NY,11372-1137,,True,"Moderna, COVID-19 Vaccine, 100mcg/0.5mL 10 dose",40.75094,-73.893823
(347) 591-4423,PRECARE PHARMACY INC #MS1005918,340A E 149TH ST,BRONX,NY,10451-5674,,True,"Janssen, COVID-19 Vaccine, 0.5 mL",40.816526,-73.920161
(718) 739-0311,Estates Pharmacy and Surgical Suppl #MS1005405,169-01 hillside avenue,jamaica,NY,11432-4434,,True,"Janssen, COVID-19 Vaccine, 0.5 mL",40.711001,-73.792856
(718) 567-5444,PARK CHEMISTS #MS1005542,500 4TH AVE,BROOKLYN,NY,11215-4881,http://www.parkchemistsrx.com,True,"Janssen, COVID-19 Vaccine, 0.5 mL",40.668409000000004,-73.99076099999999
(718) 388-4588,Katz Drugs #MS1005065,76 Graham Ave,Brooklyn,NY,11206-4077,http://WWW.Katzpharmacy.com,True,"Janssen, COVID-19 Vaccine, 0.5 mL",40.703594,-73.942388
718-654-2200,OVAL PHARMACY #330242,255 E GUN HILL ROAD,BRONX,NY,10467,http://www.ovalpharmacy.com,True,"Moderna, COVID-19 Vaccine, 100mcg/0.5mL 10 dose",40.87995,-73.875757
(718) 393-5555,PARK CHEMISTS LLC #MS1005421,164 5TH AVE,BROOKLYN,NY,11217-2696,http://www.parkchemistsrx.com,True,"Moderna, COVID-19 Vaccine, 100mcg/0.5mL 10 dose",40.677859000000005,-73.979762
718-641-4400,MEERAJ PHARMACY INC #MS1000414,115-17 LIBERTY AVE,SOUTH RICHMOND HILL,NY,11419-1901,,,"Janssen, COVID-19 Vaccine, 0.5 mL",40.686018,-73.82718
(212) 304-4646,INWOOD PHARMACY #MS1001817,4915 BROADWAY,NEW YORK,NY,10034-3119,http://www.inwoodpharmacy.com,True,"Janssen, COVID-19 Vaccine, 0.5 mL",40.867828,-73.922067
212-581-0602,Walgreens Co. #14403,619 9TH AVE,NEW YORK,NY,10036-3710,https://www.walgreens.com,True,"Moderna, COVID-19 Vaccine, 100mcg/0.5mL 10 dose",40.759691,-73.992078
(718) 972-1056,Drugland Pharmacy Corp #MS1005440,5806 Fort Hamilton Pkwy,Brooklyn,NY,11219-4832,,True,"Janssen, COVID-19 Vaccine, 0.5 mL",40.634058,-74.004533
(212) 348-2117,Raysol Drugs #MS1005229,1870 Lexington Ave,New York,NY,10029-2003,,True,"Janssen, COVID-19 Vaccine, 0.5 mL",40.798418,-73.94215600000001
(212) 234-2050,Lenox Terrace Drugs #MS1005283,20 W 135th St,New York,NY,10037-2534,,True,"Moderna, COVID-19 Vaccine, 100mcg/0.5mL 10 dose",40.813131,-73.93889200000001
212-581-0602,Walgreens Co. #14403,619 9TH AVE,NEW YORK,NY,10036-3710,https://www.walgreens.com,True,"Pfizer-BioNTech, COVID-19 Vaccine, 10 mcg/0.2 mL, tris-sucrose",40.759691,-73.992078
(718) 499-7410,Rite-care pharmacy #MS1005058,677 4th Ave,Brooklyn,NY,11232,,True,"Moderna, COVID-19 Vaccine, 100mcg/0.5mL 10 dose",40.66247,-73.995518
718-892-2288,Walgreens Co. #19458,2158 WHITE PLAINS RD,BRONX,NY,10462-1406,https://www.walgreens.com,True,"Pfizer-BioNTech, COVID-19 Vaccine, 10 mcg/0.2 mL, tris-sucrose",40.855121000000004,-73.867359
(718) 779-2221,Vida Care Pharmacy LLC #MS1005570,37-64 90th Street,Jackson Heights,NY,11372-7830,,True,"Janssen, COVID-19 Vaccine, 0.5 mL",40.74872,-73.876767
212-791-5795,Rite Aid #RA104202,7 MADISON STREET,NEW YORK,NY,10038-1202,https://www.riteaid.com,True,"Pfizer-BioNTech, COVID-19 Vaccine, 30 mcg/0.3mL, tris-sucrose",40.711899,-74.00030600000001
212-247-8384,Rite Aid #RA103110,301 WEST 50TH STREET,NEW YORK,NY,10019-8400,https://www.riteaid.com,True,"Moderna, COVID-19 Vaccine, 100mcg/0.5mL 10 dose",40.762693,-73.986306
(718) 405-9111,Benjamins Pharmacy and Surgical #MS1005357,989 Allerton Ave,Bronx,NY,10469,http://www.benjaminspharmacy.com,True,"Pfizer-BioNTech, COVID-19 Vaccine, 30 mcg/0.3mL, tris-sucrose",40.865774,-73.858806
(212) 928-7263,San Pedro Pharmacy #MS1005426,1381 Saint Nicholas Avenue,New York,NY,10033,,True,"Janssen, COVID-19 Vaccine, 0.5 mL",40.848228000000006,-73.934836
(718) 655-5558,Scheer Drugs #MS1005353,1343 East Gun Hill Road,Bronx,NY,10469,,True,"Pfizer-BioNTech, COVID-19 Vaccine, 10 mcg/0.2 mL, tris-sucrose",40.870933,-73.846627
000-000-0000,Rite Aid #RA104215,1535 2ND AVENUE,NEW YORK,NY,10075-0504,https://www.riteaid.com,True,"Pfizer-BioNTech, COVID-19 Vaccine, 30 mcg/0.3mL, tris-sucrose",40.773944,-73.954944
(212) 734-6998,goldbergers pharmacy #MS1005363,1188 first ave,new york,NY,10065,http://www.goldbergerspharmacy.com,True,"Janssen, COVID-19 Vaccine, 0.5 mL",40.762876,-73.959339
(212) 571-2888,Medilane Pharmacy Corp #MS1005094,204 Clinton Street,New York,NY,10002,,True,"Moderna, COVID-19 Vaccine, 100mcg/0.5mL 10 dose",40.713753000000004,-73.986974
718-997-8700,Merrick Pharmacy #MS1005221,23428 Merrick Blvd,Rosedale,NY,11422-1320,,,"Janssen, COVID-19 Vaccine, 0.5 mL",40.673934,-73.735682
(929) 456-6550,168 PHARMACY,135-05 38th ave storefront,flushing,NY,11354,,,"Pfizer-BioNTech, COVID-19 Vaccine, 10 mcg/0.2 mL, tris-sucrose",40.760438,-73.83243900000001
718-241-3559,Rite Aid #RA103869,1791 UTICA AVENUE,BROOKLYN,NY,11234-2120,https://www.riteaid.com,True,"Janssen, COVID-19 Vaccine, 0.5 mL",40.628933,-73.927624
718-418-9700,COLOMBO'S PHARMACY #332646,75-51 METROPOLITAN AVE,MIDDLE VILLAGE,NY,11379,http://colombospharmacy.com,,"Janssen, COVID-19 Vaccine, 0.5 mL",40.713271,-73.87570600000001
212-977-1562,Walgreens Co. #14223,661 8TH AVE,NEW YORK,NY,10036-7105,https://www.walgreens.com,True,"Pfizer-BioNTech, COVID-19 Vaccine, 10 mcg/0.2 mL, tris-sucrose",40.757647999999996,-73.989856
(718) 483-8743,careway pharmacy #MS1005465,1174 flatbush ave,BROOKLYN,NY,11226,http://carewayrx.com,True,"Moderna, COVID-19 Vaccine, 100mcg/0.5mL 10 dose",40.641463,-73.95712900000001
(718) 384-7901,UNITED PHARMACY #MS1006206,556 GRAND ST,BROOKLYN,NY,11211-4386,,True,"Moderna, COVID-19 Vaccine, 100mcg/0.5mL 10 dose",40.711001,-73.94950899999999
(718) 269-4000,Square Pharmacy Inc. #MS1005532,8400 Flatlands Ave. Brooklyn NY 11236,Brooklyn,NY,11236-3508,,True,"Moderna, COVID-19 Vaccine, 100mcg/0.5mL 10 dose",40.637152,-73.91041899999999
(718) 366-6171,Myrtle Drugs inc #MS1005707,55-18 Myrtle ave,Ridgewood,NY,11385-3551,https://myrtle-drugs.business.site/,True,"Janssen, COVID-19 Vaccine, 0.5 mL",40.699738,-73.9078
718-728-9080,Rite Aid #RA110569,32-14 31ST STREET,ASTORIA,NY,11106-2643,https://www.riteaid.com,True,"Pfizer-BioNTech, COVID-19 Vaccine, 30 mcg/0.3mL, tris-sucrose",40.761553,-73.926108
718-727-6400,Rite Aid #RA110535,385 BAY STREET STE 1,STATEN ISLAND,NY,10301-3264,https://www.riteaid.com,True,"Janssen, COVID-19 Vaccine, 0.5 mL",40.632519,-74.074945
(212) 304-3949,THERESA PHARMACY II #MS1005360,66 NAGLE AVE,NEW YORK,NY,10040,http://www.theresapharmacy.com,True,"Moderna, COVID-19 Vaccine, 100mcg/0.5mL 10 dose",40.860279999999996,-73.928881
(718) 564-2358,LIFE CARE PHARMACY INC #MS1005325,1337 NOSTRAND AVE,BROOKLYN,NY,11226,,True,"Moderna, COVID-19 Vaccine, 100mcg/0.5mL 10 dose",40.654415,-73.949782
718-378-4600,Rite Aid #RA107906,840 WESTCHESTER AVE,BRONX,NY,10459-4001,https://www.riteaid.com,True,"Moderna, COVID-19 Vaccine, 100mcg/0.5mL 10 dose",40.819581,-73.90104000000001
(718) 779-2221,Vida Care Pharmacy LLC #MS1005570,37-64 90th Street,Jackson Heights,NY,11372-7830,,True,"Moderna, COVID-19 Vaccine, 50 mcg/0.50 mL",40.74872,-73.876767
(718) 753-4900,Friends Pharmacy Inc #MS1005346,342 Kings Hwy 1st flr,Brooklyn,NY,11223-1478,,True,"Moderna, COVID-19 Vaccine, 100mcg/0.5mL 10 dose",40.604706,-73.9776
(718) 433-9816,81 Pharmacy #MS1005676,37-59B 81st Street,Jackson Heights,NY,11372,https://book-ch.appointment-plus.com/d0b3sxjc?fbclid=IwAR0oCJ0aHb9P_ncnsp2xXYhel0OompNGshHEFxt0zx8VFD7IpFOIglLiE4k#/,True,"Janssen, COVID-19 Vaccine, 0.5 mL",40.748051000000004,-73.88464599999999
(718) 466-6551,Perla pharmacy #MS1005336,822 e tremont ave,Bronx,NY,10460-4146,http://www.perlabronx.com,True,"Moderna, COVID-19 Vaccine, 100mcg/0.5mL 10 dose",40.843295,-73.88726
212-678-7893,Walgreens Co. #14214,2760-62 BROADWAY,NEW YORK,NY,10025-2805,https://www.walgreens.com,True,"Pfizer-BioNTech, COVID-19 Vaccine, 10 mcg/0.2 mL, tris-sucrose",40.801404,-73.967393
718-272-4566,New Lots Pharmacy #MS1005438,475 New Lots Ave,Brooklyn,NY,11207,,,"Moderna, COVID-19 Vaccine, 100mcg/0.5mL 10 dose",40.663295,-73.890343
(718) 393-5555,PARK CHEMISTS LLC #MS1005421,164 5TH AVE,BROOKLYN,NY,11217-2696,http://www.parkchemistsrx.com,True,"Janssen, COVID-19 Vaccine, 0.5 mL",40.677859000000005,-73.979762
718-224-2606,Walgreens Co. #19223,3920 BELL BOULEVARD,BAYSIDE,NY,11361-2061,https://www.walgreens.com,True,"Pfizer-BioNTech, COVID-19 Vaccine, 30 mcg/0.3mL, tris-sucrose",40.764824,-73.771947
(212) 795-4909,Farmacia Latina #MS1005215,3875 Broadway,New York,NY,10032,,True,"Janssen, COVID-19 Vaccine, 0.5 mL",40.837152,-73.942961
212-977-1562,Walgreens Co. #14223,661 8TH AVE,NEW YORK,NY,10036-7105,https://www.walgreens.com,True,"Moderna, COVID-19 Vaccine, 100mcg/0.5mL 10 dose",40.757647999999996,-73.989856
000-000-0000,Rite Aid #RA101711,408 GRAND STREET,NEW YORK,NY,10002-4702,https://www.riteaid.com,True,"Pfizer-BioNTech, COVID-19 Vaccine, 30 mcg/0.3mL, tris-sucrose",40.716259,-73.986222
718-224-2606,Walgreens Co. #19223,3920 BELL BOULEVARD,BAYSIDE,NY,11361-2061,https://www.walgreens.com,True,"Moderna, COVID-19 Vaccine, 100mcg/0.5mL 10 dose",40.764824,-73.771947
(718) 684-4430,PEACE PHARMACY INC #MS1005957,2366 UNIVERSITY AVE,BRONX,NY,10468-6223,,True,"Janssen, COVID-19 Vaccine, 0.5 mL",40.862478,-73.904682
718-629-2275,Walgreens Co. #18961,4123 AVENUE D,BROOKLYN,NY,11203-5705,https://www.walgreens.com,True,"Moderna, COVID-19 Vaccine, 100mcg/0.5mL 10 dose",40.641874,-73.937314
718-629-2275,Walgreens Co. #18961,4123 AVENUE D,BROOKLYN,NY,11203-5705,https://www.walgreens.com,True,"Pfizer-BioNTech, COVID-19 Vaccine, 10 mcg/0.2 mL, tris-sucrose",40.641874,-73.937314
(718) 559-0887,Nostrand Health Pharmacy #MS1006139,3901 Nostrand Ave.,Brooklyn,NY,11235-2106,,True,"Moderna, COVID-19 Vaccine, 100mcg/0.5mL 10 dose",40.589081,-73.93939499999999
(718) 703-1800,HUMDARD PHARMACY AND FOOD MART #MS1005650,949 CONY ISLAND AVE,BROOKLYN,NY,11230,,True,"Pfizer-BioNTech, COVID-19 Vaccine, 10 mcg/0.2 mL, tris-sucrose",40.634339000000004,-73.967108
(718) 380-5440,salzman chemists #MS1005285,149-19 union turnpike,flushing,NY,11367-3895,,True,"Pfizer-BioNTech, COVID-19 Vaccine, 30 mcg/0.3mL, tris-sucrose",40.719038,-73.813118
(718) 483-8743,careway pharmacy #MS1005465,1174 flatbush ave,BROOKLYN,NY,11226,http://carewayrx.com,True,"Janssen, COVID-19 Vaccine, 0.5 mL",40.641463,-73.95712900000001
(212) 348-2117,Raysol Drugs #MS1005229,1870 Lexington Ave,New York,NY,10029-2003,,True,"Moderna, COVID-19 Vaccine, 100mcg/0.5mL 10 dose",40.798418,-73.94215600000001
212-213-9887,Rite Aid #RA104971,550 SECOND AVENUE,NEW YORK,NY,10016-6307,https://www.riteaid.com,True,"Moderna, COVID-19 Vaccine, 100mcg/0.5mL 10 dose",40.742464,-73.977071
(718) 842-3807,MAHESH DRUGS #MS1001607,731 WHITE PLAINS RD,BRONX,NY,10473-2631,,True,"Janssen, COVID-19 Vaccine, 0.5 mL",40.82023,-73.858228
(718) 899-1700,Northern Blvd Pharmacy #MS1005493,100-16 northern blvd,Corona,NY,11368-1047,,True,"Pfizer-BioNTech, COVID-19 Vaccine, 30 mcg/0.3mL, tris-sucrose",40.757155,-73.867694
(718) 271-9429,CEDARS PHARMACY #MS1005113,95-19 57TH AVE,ELMHURST,NY,11373-4616,,True,"Moderna, COVID-19 Vaccine, 100mcg/0.5mL 10 dose",40.737,-73.865152
(718) 567-5444,PARK CHEMISTS #MS1005542,500 4TH AVE,BROOKLYN,NY,11215-4881,http://www.parkchemistsrx.com,True,"Moderna, COVID-19 Vaccine, 100mcg/0.5mL 10 dose",40.668409000000004,-73.99076099999999
212-787-2903,Rite Aid #RA104885,210-20 AMSTERDAM AVENUE,NEW YORK,NY,10023-5005,https://www.riteaid.com,True,"Janssen, COVID-19 Vaccine, 0.5 mL",40.777139,-73.982955
(347) 533-4737,subhan pharmacy inc #MS1001515,1067 coney island ave,BROOKLYN,NY,11230-2372,,True,"Pfizer-BioNTech, COVID-19 Vaccine, 10 mcg/0.2 mL, tris-sucrose",40.631552,-73.96623199999999
(718) 948-4848,Southshore Pharmacy Corp. #MS1005206,4020 Hylan Blvd,Staten Island,NY,10308-3331,https://forms.ny.gov/s3/vaccine,True,"Moderna, COVID-19 Vaccine, 100mcg/0.5mL 10 dose",40.541483,-74.14620699999999
(718) 564-2358,LIFE CARE PHARMACY INC #MS1005325,1337 NOSTRAND AVE,BROOKLYN,NY,11226,,True,"Pfizer-BioNTech, COVID-19 Vaccine, 10 mcg/0.2 mL, tris-sucrose",40.654415,-73.949782
(718) 220-5402,CSS Pharmacy Inc #MS1005352,2043 Grand Concourse,Bronx,NY,10453-4317,http://www.csspharmacyinc.com,True,"Janssen, COVID-19 Vaccine, 0.5 mL",40.852295,-73.90427
718-224-2606,Walgreens Co. #19223,3920 BELL BOULEVARD,BAYSIDE,NY,11361-2061,https://www.walgreens.com,True,"Pfizer-BioNTech, COVID-19 Vaccine, 10 mcg/0.2 mL, tris-sucrose",40.764824,-73.771947
(718) 651-1000,PEACE LOVE PHARMACY #582572,63-52 WOODHAVEN BLVD,REGO PARK,NY,11374,http://www.peacelovepharmacy.com,True,"Janssen, COVID-19 Vaccine, 0.5 mL",40.722967,-73.86846899999999
(718) 543-6868,Regal Pharmacy #MS1005342,558 West 235 Street,Bronx,NY,10463-1709,,True,"Janssen, COVID-19 Vaccine, 0.5 mL",40.885490999999995,-73.90983100000001
(718) 255-1717,MAJOR RX PHARMACY #MS1005587,77 02 ROOSEVELT AVE ste C,JACKSON HEIGHTS,NY,11372,,True,"Janssen, COVID-19 Vaccine, 0.5 mL",40.746896,-73.888313
(718) 337-1900,FRIENDLY PHARMACY #MS1005904,495 A BEACH 20TH ST,FAR ROCKAWAY,NY,11691-3621,,True,"Pfizer-BioNTech, COMIRNATY, 30 mcg/0.3 mL, tris-sucrose",40.599546000000004,-73.75438199999999
(718) 264-2222,Nutracare Pharmacy #5821411,22036 HILLSIDE AVE,Queens Village,NY,11427,http://www.nutracarepharmacy.com,True,"Janssen, COVID-19 Vaccine, 0.5 mL",40.730815,-73.742486
212-582-8525,Walgreens Co. #14115,51 W 51ST ST,NEW YORK,NY,10019-6113,https://www.walgreens.com,True,"Pfizer-BioNTech, COVID-19 Vaccine, 3 mcg/0.2 mL, tris-sucrose",40.76008,-73.978575
718-641-4400,MEERAJ PHARMACY INC #MS1000414,115-17 LIBERTY AVE,SOUTH RICHMOND HILL,NY,11419-1901,,,"Moderna, COVID-19 Vaccine, 100mcg/0.5mL 10 dose",40.686018,-73.82718
(718) 405-9111,Benjamins Pharmacy and Surgical #MS1005357,989 Allerton Ave,Bronx,NY,10469,http://www.benjaminspharmacy.com,True,"Pfizer-BioNTech, COVID-19 Vaccine, 10 mcg/0.2 mL, tris-sucrose",40.865774,-73.858806
(718) 366-6171,Myrtle Drugs inc #MS1005707,55-18 Myrtle ave,Ridgewood,NY,11385-3551,https://myrtle-drugs.business.site/,True,"Moderna, COVID-19 Vaccine, 100mcg/0.5mL 10 dose",40.699738,-73.9078
(718) 380-5440,salzman chemists #MS1005285,149-19 union turnpike,flushing,NY,11367-3895,,True,"Moderna, COVID-19 Vaccine, 100mcg/0.5mL 10 dose",40.719038,-73.813118
(718) 325-1355,Top Value Pharmacy #5807536,3811 Dyre Avenue,Bronx,NY,10466,http://www.mytopvaluepharmacy.com,True,"Pfizer-BioNTech, COVID-19 Vaccine, 10 mcg/0.2 mL, tris-sucrose",40.888249,-73.831689
718-975-8555,TOP CARE PHARMACY RX LLC #MS1006226,380 RALPH AVE,BROOKLYN,NY,11233-3918,,,"Pfizer-BioNTech, COVID-19 Vaccine, 30 mcg/0.3mL, tris-sucrose",40.675845,-73.922227
(718) 854-7722,Quickaid Pharmacy #MS1005147,3814 13th Avenue,Brooklyn,NY,11218-3604,,True,"Pfizer-BioNTech, COVID-19 Vaccine, 10 mcg/0.2 mL, tris-sucrose",40.640984,-73.986228
(347) 506-1000,MedPack LLC #1,5923 Strickland Ave,Brooklyn,NY,11234,https://medpackrx.com/,True,"Moderna, COVID-19 Vaccine, 100mcg/0.5mL 10 dose",40.608442,-73.915453
(718) 745-5100,New Victory Pharmacy #MS1005039,9216 4th ave,Brooklyn,NY,11209,www.newvictorypharmacy.com,True,"Janssen, COVID-19 Vaccine, 0.5 mL",40.618061,-74.030575
212-582-8525,Walgreens Co. #14115,51 W 51ST ST,NEW YORK,NY,10019-6113,https://www.walgreens.com,True,"Pfizer-BioNTech, COMIRNATY, 30 mcg/0.3 mL, tris-sucrose",40.76008,-73.978575
718-630-5482,Walgreens Co. #17968,7821 3RD AVE,BROOKLYN,NY,11209-3605,https://www.walgreens.com,True,"Moderna, COVID-19 Vaccine, 100mcg/0.5mL 10 dose",40.628686,-74.028572
(718) 388-4588,Katz Drugs #MS1005065,76 Graham Ave,Brooklyn,NY,11206-4077,http://WWW.Katzpharmacy.com,True,"Pfizer-BioNTech, COVID-19 Vaccine, 10 mcg/0.2 mL, tris-sucrose",40.703594,-73.942388
718-378-4600,Rite Aid #RA107906,840 WESTCHESTER AVE,BRONX,NY,10459-4001,https://www.riteaid.com,True,"Pfizer-BioNTech, COVID-19 Vaccine, 10 mcg/0.2 mL, tris-sucrose",40.819581,-73.90104000000001
000-000-0000,Rite Aid #RA103363,650 CASTLE HILL AVENUE,BRONX,NY,10473-1402,https://www.riteaid.com,True,"Moderna, COVID-19 Vaccine, 100mcg/0.5mL 10 dose",40.81992,-73.847512
(718) 266-2137,86TH STREET COMMUNITY PHARMACY CORP #MS1000261,2789 86TH ST,BROOKLYN,NY,11223-4433,https://86thstreetcommunitypharmacy.com/,True,"Janssen, COVID-19 Vaccine, 0.5 mL",40.593435,-73.97930699999999
(718) 699-8899,21st Century Pharmacy Inc. #MS1005399,9605 57th Ave,Corona,NY,11368-3445,,True,"Moderna, COVID-19 Vaccine, 100mcg/0.5mL 10 dose",40.737194,-73.864752
(718) 827-7528,AMIABLE PHARMACY #MS1005775,1108 LIBERTY AVE,BROOKLYN,NY,11208-2922,http://amiableph.com,True,"Pfizer-BioNTech, COVID-19 Vaccine, 10 mcg/0.2 mL, tris-sucrose",40.678360999999995,-73.86839300000001
(347) 899-8020,KING COMMUNITY PHARMACY INC. #MS1000292,161 DREISER LOOP,BRONX,NY,10475-2703,,True,"Pfizer-BioNTech, COVID-19 Vaccine, 30 mcg/0.3mL, tris-sucrose",40.876696,-73.829686
(718) 893-5700,FIRST AID PHARMACY #MS1005153,921 E TREMONT AVE,BRONX,NY,10460,,True,"Janssen, COVID-19 Vaccine, 0.5 mL",40.842068,-73.883495
(347) 506-1000,MedPack LLC #1,5923 Strickland Ave,Brooklyn,NY,11234,https://medpackrx.com/,True,"Janssen, COVID-19 Vaccine, 0.5 mL",40.608442,-73.915453
(718) 232-8277,WELLNESS PHARMACY INC #MS1006265,217 KINGS HWY,BROOKLYN,NY,11223-1106,,True,"Pfizer-BioNTech, COVID-19 Vaccine, 10 mcg/0.2 mL, tris-sucrose",40.605666,-73.98342
(212) 228-2260,ESQUIRE PHARMACY #MS1001214,277 First Ave,New York,NY,10003-2994,,True,"Janssen, COVID-19 Vaccine, 0.5 mL",40.732620000000004,-73.98196999999999
(718) 779-6600,National Pharmacy #MS1005506,10111 ROOSEVELT AVE,Corona,NY,11368,,True,"Moderna, COVID-19 Vaccine, 100mcg/0.5mL 10 dose",40.749871999999996,-73.864193
(718) 561-4040,Arthur Avenue Pharmacy #MS1005434,2343 ARTHUR AVE,Bronx,NY,10458,,True,"Janssen, COVID-19 Vaccine, 0.5 mL",40.854563,-73.888752
718-829-6808,Rite Aid #RA110539,2748 EAST. TREMONT AVE.,BRONX,NY,10461-2808,https://www.riteaid.com,True,"Janssen, COVID-19 Vaccine, 0.5 mL",40.841796,-73.844511
212-582-8525,Walgreens Co. #14115,51 W 51ST ST,NEW YORK,NY,10019-6113,https://www.walgreens.com,True,"Moderna, COVID-19 Vaccine, 100mcg/0.5mL 10 dose",40.76008,-73.978575
(718) 948-4848,Southshore Pharmacy Corp. #MS1005206,4020 Hylan Blvd,Staten Island,NY,10308-3331,https://forms.ny.gov/s3/vaccine,True,"Janssen, COVID-19 Vaccine, 0.5 mL",40.541483,-74.14620699999999
000-000-0000,Rite Aid #RA103363,650 CASTLE HILL AVENUE,BRONX,NY,10473-1402,https://www.riteaid.com,True,"Pfizer-BioNTech, COVID-19 Vaccine, 30 mcg/0.3mL, tris-sucrose",40.81992,-73.847512
(718) 972-1056,Drugland Pharmacy Corp #MS1005440,5806 Fort Hamilton Pkwy,Brooklyn,NY,11219-4832,,True,"Moderna, COVID-19 Vaccine, 100mcg/0.5mL 10 dose",40.634058,-74.004533
212-247-8384,Rite Aid #RA103110,301 WEST 50TH STREET,NEW YORK,NY,10019-8400,https://www.riteaid.com,True,"Janssen, COVID-19 Vaccine, 0.5 mL",40.762693,-73.986306
(718) 872-5600,MARHABA PHARMACY #MS1001572,2029 BATH AVENUE,BROOKLYN,NY,11214,,True,"Janssen, COVID-19 Vaccine, 0.5 mL",40.600854999999996,-74.000451
(212) 926-9800,BROADWAY PHARMACY #MS1001402,3621 BROADWAY,NEW YORK,NY,10031-3201,http://broadwaypharmacyny.com/,True,"Moderna, COVID-19 Vaccine, 100mcg/0.5mL 10 dose",40.829238000000004,-73.948738
(718) 739-0311,Estates Pharmacy and Surgical Suppl #MS1005405,169-01 hillside avenue,jamaica,NY,11432-4434,,True,"Pfizer-BioNTech, COVID-19 Vaccine, 30 mcg/0.3mL, tris-sucrose",40.711001,-73.792856
(718) 453-6200,Myrtle Drugs #5803944,1454 Myrtle Avenue,Brooklyn,NY,11237,http://myrtledrugs.com,True,"Janssen, COVID-19 Vaccine, 0.5 mL",40.698831,-73.916668
718-779-6431,Walgreens Co. #19959,5801 QUEENS BLVD,WOODSIDE,NY,11377-7752,https://www.walgreens.com,True,"Pfizer-BioNTech, COVID-19 Vaccine, 10 mcg/0.2 mL, tris-sucrose",40.74221,-73.906818
718-365-9354,Walgreens Co. #14459,58 E FORDHAM RD,BRONX,NY,10468-5441,https://www.walgreens.com,True,"Janssen, COVID-19 Vaccine, 0.5 mL",40.86205,-73.899928
(718) 500-3269,RX BOX PHARMACY #MS1003080,3265 RICHMOND AVE,STATEN ISLAND,NY,10312-2123,https://www.yourrxbox.com/,True,"Moderna, COVID-19 Vaccine, 100mcg/0.5mL 10 dose",40.559564,-74.168052
718-375-8257,Rite Aid #RA102612,344 AVENUE X,BROOKLYN,NY,11223-5914,https://www.riteaid.com,True,"Janssen, COVID-19 Vaccine, 0.5 mL",40.590297,-73.970422
(718) 291-0717,As-Salam Pharmacy Inc #MS1005348,147-26 Hillside Ave,Jamaica,NY,11435-3329,,True,"Pfizer-BioNTech, COVID-19 Vaccine, 10 mcg/0.2 mL, tris-sucrose",40.705813,-73.808581
(718) 392-8049,LONG ISLAND CITY CHEMISTS #MS1000251,30-12 36TH AVE,LONG ISLAND CITY,NY,11106-2315,,True,"Pfizer-BioNTech, COVID-19 Vaccine, 30 mcg/0.3mL, tris-sucrose",40.756671999999995,-73.930205
(718) 676-9976,Fine Care Pharmacy #MS1005370,380 Knickerbocker Ave,Brooklyn,NY,11237-3702,http://finecarerx.com,True,"Pfizer-BioNTech, COVID-19 Vaccine, 10 mcg/0.2 mL, tris-sucrose",40.700225,-73.921171
(718) 433-9816,81 Pharmacy #MS1005676,37-59B 81st Street,Jackson Heights,NY,11372,https://book-ch.appointment-plus.com/d0b3sxjc?fbclid=IwAR0oCJ0aHb9P_ncnsp2xXYhel0OompNGshHEFxt0zx8VFD7IpFOIglLiE4k#/,True,"Moderna, COVID-19 Vaccine, 100mcg/0.5mL 10 dose",40.748051000000004,-73.88464599999999
718-643-9505,Walgreens Co. #14498,559 FULTON ST,BROOKLYN,NY,11201-5309,https://www.walgreens.com,True,"Pfizer-BioNTech, COVID-19 Vaccine, 10 mcg/0.2 mL, tris-sucrose",40.689609000000004,-73.98239699999999
(212) 427-4382,Upper Madison Drugs #3382190,1590 MADISON AVE,New York,NY,10029,http://BLISSPHARMACYINC.COM,True,"Janssen, COVID-19 Vaccine, 0.5 mL",40.793574,-73.948101
(718) 269-4000,Square Pharmacy Inc. #MS1005532,8400 Flatlands Ave. Brooklyn NY 11236,Brooklyn,NY,11236-3508,,True,"Janssen, COVID-19 Vaccine, 0.5 mL",40.637152,-73.91041899999999
718-278-2100,Rite Aid #RA104865,32-87 STEINWAY STREET,ASTORIA,NY,11103-4031,https://www.riteaid.com,True,"Moderna, COVID-19 Vaccine, 100mcg/0.5mL 10 dose",40.756731,-73.92047
(718) 433-9816,81 Pharmacy #MS1005676,37-59B 81st Street,Jackson Heights,NY,11372,https://book-ch.appointment-plus.com/d0b3sxjc?fbclid=IwAR0oCJ0aHb9P_ncnsp2xXYhel0OompNGshHEFxt0zx8VFD7IpFOIglLiE4k#/,True,"Pfizer-BioNTech, COVID-19 Vaccine, 10 mcg/0.2 mL, tris-sucrose",40.748051000000004,-73.88464599999999
(718) 439-5900,IDEAL PHARMACY #MS1000705,5409 5TH AVE,BROOKLYN,NY,11220-3112,http://www.ideal-pharmacy.com/,True,"Janssen, COVID-19 Vaccine, 0.5 mL",40.642544,-74.012641
718-629-2275,Walgreens Co. #18961,4123 AVENUE D,BROOKLYN,NY,11203-5705,https://www.walgreens.com,True,"Janssen, COVID-19 Vaccine, 0.5 mL",40.641874,-73.937314
718-236-0146,Walgreens Co. #17814,6101 18TH AVE,BROOKLYN,NY,11204-2302,https://www.walgreens.com,True,"Pfizer-BioNTech, COVID-19 Vaccine, 10 mcg/0.2 mL, tris-sucrose",40.621128000000006,-73.987824
(718) 482-8900,BLISS DRUGS INC #MS1000508,4701 QUEENS BLVD,SUNNYSIDE,NY,11104,www.blissdrugs.com,True,"Pfizer-BioNTech, COVID-19 Vaccine, 10 mcg/0.2 mL, tris-sucrose",40.743415,-73.917388
718-630-5482,Walgreens Co. #17968,7821 3RD AVE,BROOKLYN,NY,11209-3605,https://www.walgreens.com,True,"Janssen, COVID-19 Vaccine, 0.5 mL",40.628686,-74.028572
(212) 928-6342,COLUMBIA PHARMACY #MS1005077,3921 BROADWAY,NEW YORK,NY,10032,,True,"Janssen, COVID-19 Vaccine, 0.5 mL",40.838652,-73.941874
212-828-1772,Rite Aid #RA104945,35-45 WEST 125TH STREET,NEW YORK,NY,10027-4512,https://www.riteaid.com,True,"Moderna, COVID-19 Vaccine, 100mcg/0.5mL 10 dose",40.807149,-73.943621
(718) 969-1600,Prime Health Pharmacy #MS1005429,69-21 164th Street,Fresh Meadows,NY,11365-3200,,True,"Janssen, COVID-19 Vaccine, 0.5 mL",40.732575,-73.804687
718-236-0146,Walgreens Co. #17814,6101 18TH AVE,BROOKLYN,NY,11204-2302,https://www.walgreens.com,True,"Moderna, COVID-19 Vaccine, 100mcg/0.5mL 10 dose",40.621128000000006,-73.987824
718-997-8700,Merrick Pharmacy #MS1005221,23428 Merrick Blvd,Rosedale,NY,11422-1320,,,"Pfizer-BioNTech, COVID-19 Vaccine, 10 mcg/0.2 mL, tris-sucrose",40.673934,-73.735682
(646) 287-1775,homeandhome pharmacy #MS1005665,86-18 whitney ave,elmhurst,NY,11373-3658,,True,"Moderna, COVID-19 Vaccine, 100mcg/0.5mL 10 dose",40.741941,-73.878485
(718) 891-2801,ALL AMERICAN DRUGGISTS #MS1003351,1101 BRIGHTON BEACH AVE,BROOKLYN,NY,11235-5558,,True,"Moderna, COVID-19 Vaccine, 100mcg/0.5mL 10 dose",40.578140000000005,-73.956677
(718) 482-8900,BLISS DRUGS INC #MS1000508,4701 QUEENS BLVD,SUNNYSIDE,NY,11104,www.blissdrugs.com,True,"Janssen, COVID-19 Vaccine, 0.5 mL",40.743415,-73.917388
(718) 405-9111,Benjamins Pharmacy and Surgical #MS1005357,989 Allerton Ave,Bronx,NY,10469,http://www.benjaminspharmacy.com,True,"Moderna, COVID-19 Vaccine, 100mcg/0.5mL 10 dose",40.865774,-73.858806
(718) 975-7757,Brooklyn Family Pharmacy #MS1002406,355 ave x,BROOKLYN,NY,11223-5915,,True,"Janssen, COVID-19 Vaccine, 0.5 mL",40.590778,-73.969838
(212) 481-6600,Healthsource Pharmacy #3328083,120 East 34th Sreet,New York,NY,10016,https://healthsourcepharmacy.com,True,"Moderna, COVID-19 Vaccine, 100mcg/0.5mL 10 dose",40.746469,-73.98030200000001
(718) 366-6171,Myrtle Drugs inc #MS1005707,55-18 Myrtle ave,Ridgewood,NY,11385-3551,https://myrtle-drugs.business.site/,True,"Pfizer-BioNTech, COVID-19 Vaccine, 30 mcg/0.3mL, tris-sucrose",40.699738,-73.9078
(718) 220-5402,CSS Pharmacy Inc #MS1005352,2043 Grand Concourse,Bronx,NY,10453-4317,http://www.csspharmacyinc.com,True,"Moderna, COVID-19 Vaccine, 100mcg/0.5mL 10 dose",40.852295,-73.90427
(212) 414-9755,NEW LONDON SPECIALTY PHARMACY #MS1000831,246 8TH AVENUE,NEW YORK,NY,10011,,True,"Janssen, COVID-19 Vaccine, 0.5 mL",40.744887,-73.998457
(212) 690-6502,ROSY PHARMACY #MS1005439,3355 BROADWAY,NEW YORK,NY,10031,,True,"Moderna, COVID-19 Vaccine, 100mcg/0.5mL 10 dose",40.820665000000005,-73.95506800000001
(718) 352-3200,AUBURNDALE PHARMACY #MS1005416,192-15 47TH AVE,FLUSHING,NY,11358-3906,http://auburndalepharmacy.com,True,"Moderna, COVID-19 pediatric vaccine, 25mcg/.25 ml",40.752112,-73.788489
718-731-8733,Rite Aid #RA103429,1540 GRAND CONCOURSE,BRONX,NY,10457-8400,https://www.riteaid.com,True,"Janssen, COVID-19 Vaccine, 0.5 mL",40.841907,-73.911824
212-582-8525,Walgreens Co. #14115,51 W 51ST ST,NEW YORK,NY,10019-6113,https://www.walgreens.com,True,"Moderna, COVID-19 pediatric vaccine, 25mcg/.25 ml",40.76008,-73.978575
(212) 690-6502,ROSY PHARMACY #MS1005439,3355 BROADWAY,NEW YORK,NY,10031,,True,"Pfizer-BioNTech, COVID-19 Vaccine, 3 mcg/0.2 mL, tris-sucrose",40.820665000000005,-73.95506800000001
212-582-8525,Walgreens Co. #14115,51 W 51ST ST,NEW YORK,NY,10019-6113,https://www.walgreens.com,True,"Moderna, COVID-19 Vaccine, 50 mcg/0.50 mL",40.76008,-73.978575
708-524-7099,HENDRIX PHARMACY #MS1006487,121 LAFAYETTE AVE,STATEN ISLAND,NY,10301-1249,,,"Pfizer-BioNTech, COVID-19 Vaccine, 10 mcg/0.2 mL, tris-sucrose",40.641897,-74.094895
718-731-8733,Rite Aid #RA103429,1540 GRAND CONCOURSE,BRONX,NY,10457-8400,https://www.riteaid.com,True,"Pfizer-BioNTech, COVID-19 Vaccine, 10 mcg/0.2 mL, tris-sucrose",40.841907,-73.911824
718-731-8733,Rite Aid #RA103429,1540 GRAND CONCOURSE,BRONX,NY,10457-8400,https://www.riteaid.com,True,"Pfizer-BioNTech, COVID-19 Vaccine, 30 mcg/0.3mL, tris-sucrose",40.841907,-73.911824
(718) 745-5100,New Victory Pharmacy #MS1005039,9216 4th ave,Brooklyn,NY,11209,www.newvictorypharmacy.com,True,"Moderna, COVID-19 Vaccine, 100mcg/0.5mL 10 dose",40.618061,-74.030575
718-731-8733,Rite Aid #RA103429,1540 GRAND CONCOURSE,BRONX,NY,10457-8400,https://www.riteaid.com,True,"Moderna, COVID-19 Vaccine, 100mcg/0.5mL 10 dose",40.841907,-73.911824
(718) 944-0862,Emerald Pharmacy #MS1005101,4295 Katonah Avenue,Bronx,NY,10470,http://www.emeraldpharmacy.com,True,"Janssen, COVID-19 Vaccine, 0.5 mL",40.898465,-73.867589
(718) 944-0862,Emerald Pharmacy #MS1005101,4295 Katonah Avenue,Bronx,NY,10470,http://www.emeraldpharmacy.com,True,"Moderna, COVID-19 pediatric vaccine, 25mcg/.25 ml",40.898465,-73.867589
(718) 699-8899,21st Century Pharmacy Inc. #MS1005399,9605 57th Ave,Corona,NY,11368-3445,,True,"Janssen, COVID-19 Vaccine, 0.5 mL",40.737194,-73.864752
(718) 944-0862,Emerald Pharmacy #MS1005101,4295 Katonah Avenue,Bronx,NY,10470,http://www.emeraldpharmacy.com,True,"Pfizer-BioNTech, COVID-19 Vaccine, 3 mcg/0.2 mL, tris-sucrose",40.898465,-73.867589
(718) 343-1000,GOOD CARE PHARMACY #MS1002532,241-06 HILLSIDE AVE,BELLEROSE,NY,11426-2150,,True,"Janssen, COVID-19 Vaccine, 0.5 mL",40.733614,-73.724791
(718) 944-0862,Emerald Pharmacy #MS1005101,4295 Katonah Avenue,Bronx,NY,10470,http://www.emeraldpharmacy.com,True,"Moderna, COVID-19 Vaccine, 100mcg/0.5mL 10 dose",40.898465,-73.867589
(718) 429-2140,Hopkins Drugs #5812993,6319 Roosevelt Avenue,Woodside,NY,11377,http://www.myhopkinsdrugs.com,True,"Moderna, COVID-19 Vaccine, 100mcg/0.5mL 10 dose",40.746125,-73.900338
(718) 944-0862,Emerald Pharmacy #MS1005101,4295 Katonah Avenue,Bronx,NY,10470,http://www.emeraldpharmacy.com,True,"Pfizer-BioNTech, COVID-19 Vaccine, 10 mcg/0.2 mL, tris-sucrose",40.898465,-73.867589
(212) 249-1069,Madison Apothecary #MS1005575,1114 Madison Avenue,New York,NY,10028,http://www.themadisonapothecary.com,True,"Moderna, COVID-19 Vaccine, 100mcg/0.5mL 10 dose",40.779214,-73.960385
(718) 366-2109,TRINITY RX CORP. #MS1005442,7521 MYRTLE AVE,RIDGEWOOD,NY,11385,,True,"Janssen, COVID-19 Vaccine, 0.5 mL",40.702784,-73.872713
(718) 319-8200,CASTLE HILL COMMUNITY PHARMACY #MS1000216,706 CASTLE HILL AVE,BRONX,NY,10473-1303,,True,"Moderna, COVID-19 Vaccine, 100mcg/0.5mL 10 dose",40.821374,-73.848297
(212) 226-2881,HARMONY PHARMACY INC. #MS1000587,128-138 MOTT ST,NEW YORK,NY,10013-1001,,True,"Janssen, COVID-19 Vaccine, 0.5 mL",40.718478999999995,-73.99647399999999
(718) 292-0900,BOOM PHARMACY #MS1005364,226 EAST 144TH ST FL 2,BRONX,NY,10451-5909,http://www.boompharmacy.com,True,"Moderna, COVID-19 Vaccine, 100mcg/0.5mL 10 dose",40.815619,-73.925557
(718) 352-1234,Plus Drugs Inc #MS1005473,209-31 Northern Blvd,Bayside,NY,11361-3134,,True,"Janssen, COVID-19 Vaccine, 0.5 mL",40.759421,-73.773647
(212) 849-8294,"CVS Pharmacy, INC. #17817",795 COLUMBUS AVENUE,NEW YORK,NY,10025,https://www.cvs.com/store-locator/details-directions/017817,True,"Moderna, COVID-19 Vaccine, Bivalent Booster, 50mcg/0.5 mL",40.794446,-73.965877
(718) 446-6656,GRAND CARE PHARMACY INC #582679,66-56 GRAND AVE,MASPETH,NY,11378,http://GRANDCARERX.COM,True,"Pfizer-BioNTech, COVID-19 Vaccine, Bivalent Booster, 30mcg/0.3mL",40.724907,-73.896917
(718) 366-2109,TRINITY RX CORP. #MS1005442,7521 MYRTLE AVE,RIDGEWOOD,NY,11385,,True,"Moderna, COVID-19 Vaccine, 100mcg/0.5mL 10 dose",40.702784,-73.872713
(212) 849-8294,"CVS Pharmacy, INC. #17817",795 COLUMBUS AVENUE,NEW YORK,NY,10025,https://www.cvs.com/store-locator/details-directions/017817,True,"Pfizer-BioNTech, COVID-19 Vaccine, Bivalent Booster, 30mcg/0.3mL",40.794446,-73.965877
(718) 366-2109,TRINITY RX CORP. #MS1005442,7521 MYRTLE AVE,RIDGEWOOD,NY,11385,,True,"Pfizer-BioNTech, COVID-19 Vaccine, Bivalent Booster, 30mcg/0.3mL",40.702784,-73.872713
(718) 205-0588,Care First Pharmacy #MS1005340,8330 Broadway,Elmhurst,NY,11373-5702,,True,"Janssen, COVID-19 Vaccine, 0.5 mL",40.740376,-73.879273
(718) 446-6656,GRAND CARE PHARMACY INC #582679,66-56 GRAND AVE,MASPETH,NY,11378,http://GRANDCARERX.COM,True,"Pfizer-BioNTech, COVID-19 Vaccine, 10 mcg/0.2 mL, tris-sucrose",40.724907,-73.896917
(718) 446-6656,GRAND CARE PHARMACY INC #582679,66-56 GRAND AVE,MASPETH,NY,11378,http://GRANDCARERX.COM,True,"Novavax, COVID-19 Vaccine, 5 mcg/0.5 mL",40.724907,-73.896917
(718) 292-0900,BOOM PHARMACY #MS1005364,226 EAST 144TH ST FL 2,BRONX,NY,10451-5909,http://www.boompharmacy.com,True,"Moderna, COVID-19 Vaccine, Bivalent Booster, 50mcg/0.5 mL",40.815619,-73.925557
(718) 446-6656,GRAND CARE PHARMACY INC #582679,66-56 GRAND AVE,MASPETH,NY,11378,http://GRANDCARERX.COM,True,"Moderna, COVID-19 pediatric vaccine, 25mcg/.25 ml",40.724907,-73.896917
(718) 446-6656,GRAND CARE PHARMACY INC #582679,66-56 GRAND AVE,MASPETH,NY,11378,http://GRANDCARERX.COM,True,"Moderna, COVID-19 Vaccine, Bivalent Booster, 50mcg/0.5 mL",40.724907,-73.896917
(212) 226-2881,HARMONY PHARMACY INC. #MS1000587,128-138 MOTT ST,NEW YORK,NY,10013-1001,,True,"Pfizer-BioNTech, COVID-19 Vaccine, 10 mcg/0.2 mL, tris-sucrose",40.718478999999995,-73.99647399999999
(718) 446-6656,GRAND CARE PHARMACY INC #582679,66-56 GRAND AVE,MASPETH,NY,11378,http://GRANDCARERX.COM,True,"Moderna, COVID-19 Vaccine, 50 mcg/0.50 mL",40.724907,-73.896917
(212) 226-2881,HARMONY PHARMACY INC. #MS1000587,128-138 MOTT ST,NEW YORK,NY,10013-1001,,True,"Moderna, COVID-19 Vaccine, 100mcg/0.5mL 10 dose",40.718478999999995,-73.99647399999999
(718) 366-2109,TRINITY RX CORP. #MS1005442,7521 MYRTLE AVE,RIDGEWOOD,NY,11385,,True,"Pfizer-BioNTech, COVID-19 Vaccine, 10 mcg/0.2 mL, tris-sucrose",40.702784,-73.872713
(718) 840-9186,ARD PHARMACY #MS1003335,6061 MYRTLE AVE,RIDGEWOOD,NY,11385-5908,,True,"Janssen, COVID-19 Vaccine, 0.5 mL",40.70087,-73.896059
(718) 352-3200,AUBURNDALE PHARMACY #MS1005416,192-15 47TH AVE,FLUSHING,NY,11358-3906,http://auburndalepharmacy.com,True,"Novavax, COVID-19 Vaccine, 5 mcg/0.5 mL",40.752112,-73.788489
(718) 446-6656,GRAND CARE PHARMACY INC #582679,66-56 GRAND AVE,MASPETH,NY,11378,http://GRANDCARERX.COM,True,"Janssen, COVID-19 Vaccine, 0.5 mL",40.724907,-73.896917
(212) 226-2881,HARMONY PHARMACY INC. #MS1000587,128-138 MOTT ST,NEW YORK,NY,10013-1001,,True,"Pfizer-BioNTech, COVID-19 Vaccine, 3 mcg/0.2 mL, tris-sucrose",40.718478999999995,-73.99647399999999
(718) 366-2109,TRINITY RX CORP. #MS1005442,7521 MYRTLE AVE,RIDGEWOOD,NY,11385,,True,"Pfizer-BioNTech, COVID-19 Vaccine, 30 mcg/0.3mL, tris-sucrose",40.702784,-73.872713
(212) 249-1069,Madison Apothecary #MS1005575,1114 Madison Avenue,New York,NY,10028,http://www.themadisonapothecary.com,True,"Janssen, COVID-19 Vaccine, 0.5 mL",40.779214,-73.960385
(718) 224-3233,DANA PHARMACY INC #MS1000428,248-12 NORTHERN BLVD 1C,LITTLE NECK,NY,11362-1207,,True,"Moderna, COVID-19 Vaccine, 100mcg/0.5mL 10 dose",40.766931,-73.73873
(347) 799-2213,Organic Planet Pharmacy #MS1001658,205 N 9TH ST,Brooklyn,NY,11211,http://organicplanetpharmacy.com,,"Moderna, COVID-19 Vaccine, Bivalent Booster, 50mcg/0.5 mL",40.718002,-73.954764
(347) 799-2213,Organic Planet Pharmacy #MS1001658,205 N 9TH ST,Brooklyn,NY,11211,http://organicplanetpharmacy.com,,"Janssen, COVID-19 Vaccine, 0.5 mL",40.718002,-73.954764
(347) 799-2213,Organic Planet Pharmacy #MS1001658,205 N 9TH ST,Brooklyn,NY,11211,http://organicplanetpharmacy.com,,"Pfizer-BioNTech, COVID-19 Vaccine, Bivalent Booster, 30mcg/0.3mL",40.718002,-73.954764
(347) 799-2213,Organic Planet Pharmacy #MS1001658,205 N 9TH ST,Brooklyn,NY,11211,http://organicplanetpharmacy.com,,"Moderna, COVID-19 Vaccine, 100mcg/0.5mL 10 dose",40.718002,-73.954764
(718) 855-3070,S Bros Pharmacy #5814187,176 Lee Avenue,Brooklyn,NY,11211,http://WWW.SBROSPHARMACY.COM,True,"Pfizer-BioNTech, COMIRNATY, 30 mcg/0.3 mL, tris-sucrose",40.702551,-73.956576
(917) 565-8666,SUNNING PHARMACY INC. #MS1001027,1836 Hylan blvd suite B,Staten Island,NY,10305-1935,https://book-ch.appointment-plus.com/d0vrgn3v,True,"Pfizer-BioNTech, COVID-19 Vaccine, 30 mcg/0.3mL, tris-sucrose",40.584302,-74.09421800000001
(718) 583-5900,PARK PLAZA PHARMACY #MS1005354,1773 UNIVERSITY AVENUE,BRONX,NY,10453-6997,http://www.parkplazapharmacyny.com,True,"Moderna, COVID-19 pediatric vaccine, 25mcg/.25 ml",40.85058,-73.915962
(718) 855-3070,S Bros Pharmacy #5814187,176 Lee Avenue,Brooklyn,NY,11211,http://WWW.SBROSPHARMACY.COM,True,"Pfizer-BioNTech, COVID-19 Vaccine, 30 mcg/0.3mL, tris-sucrose",40.702551,-73.956576
(718) 316-6766,Medassure Pharmacy #MS1005559,2334 Washington Ave,Bronx,NY,10458-7714,http://www.medassurepharmacy.com,True,"Janssen, COVID-19 Vaccine, 0.5 mL",40.85605,-73.89216
(718) 316-6766,Medassure Pharmacy #MS1005559,2334 Washington Ave,Bronx,NY,10458-7714,http://www.medassurepharmacy.com,True,"Pfizer-BioNTech, COVID-19 Vaccine, 10 mcg/0.2 mL, tris-sucrose",40.85605,-73.89216
(718) 492-3888,A PLUS PHARMACY CORPORATION #MS1005733,5605 7TH AVE,BROOKLYN,NY,11220-3509,,True,"Pfizer-BioNTech, COVID-19 Vaccine, 30 mcg/0.3mL, tris-sucrose",40.638816,-74.009433
(718) 823-1085,PILGRIM PHARMACY INC #335397,2941 WESTCHESTER AVE,BRONX,NY,10461,http://www.pilgrimpharmacy.com,True,"Janssen, COVID-19 Vaccine, 0.5 mL",40.846969,-73.832862
212-222-3652,DRUG SHOPPE LLC #331930,2074 8TH AVENUE,NEW YORK,NY,10026,,,"Pfizer-BioNTech, COVID-19 Vaccine, 30 mcg/0.3mL, tris-sucrose",40.801968,-73.956808
(631) 380-3800,DORADO PHARMACY #MS1006303,1440 FOREST AVE STORE 5,STATEN ISLAND,NY,10302-2215,,True,"Pfizer-BioNTech, COVID-19 Vaccine, Bivalent Booster, 30mcg/0.3mL",40.624210999999995,-74.136337
(631) 380-3800,DORADO PHARMACY #MS1006303,1440 FOREST AVE STORE 5,STATEN ISLAND,NY,10302-2215,,True,"Novavax, COVID-19 Vaccine, 5 mcg/0.5 mL",40.624210999999995,-74.136337
(718) 492-3888,A PLUS PHARMACY CORPORATION #MS1005733,5605 7TH AVE,BROOKLYN,NY,11220-3509,,True,"Pfizer-BioNTech, COVID-19 Vaccine, 10 mcg/0.2 mL, tris-sucrose",40.638816,-74.009433
(631) 380-3800,DORADO PHARMACY #MS1006303,1440 FOREST AVE STORE 5,STATEN ISLAND,NY,10302-2215,,True,"Moderna, COVID-19 pediatric vaccine, 25mcg/.25 ml",40.624210999999995,-74.136337
(631) 380-3800,DORADO PHARMACY #MS1006303,1440 FOREST AVE STORE 5,STATEN ISLAND,NY,10302-2215,,True,"Moderna, COVID-19 Vaccine, 50 mcg/0.50 mL",40.624210999999995,-74.136337
(718) 492-3888,A PLUS PHARMACY CORPORATION #MS1005733,5605 7TH AVE,BROOKLYN,NY,11220-3509,,True,"Pfizer-BioNTech, COVID-19 Vaccine, Bivalent Booster, 30mcg/0.3mL",40.638816,-74.009433
(631) 380-3800,DORADO PHARMACY #MS1006303,1440 FOREST AVE STORE 5,STATEN ISLAND,NY,10302-2215,,True,"Pfizer-BioNTech, COMIRNATY, 30 mcg/0.3 mL, tris-sucrose",40.624210999999995,-74.136337
(718) 618-7099,Good Life Pharmacy Inc #MS1005617,2366 GRAND CONCOURSE,BRONX,NY,10458-6908,www.thegoodlifepharmacy.com,True,"Moderna, COVID-19 Vaccine, 100mcg/0.5mL 10 dose",40.859066999999996,-73.89845799999999
(718) 618-7099,Good Life Pharmacy Inc #MS1005617,2366 GRAND CONCOURSE,BRONX,NY,10458-6908,www.thegoodlifepharmacy.com,True,"Janssen, COVID-19 Vaccine, 0.5 mL",40.859066999999996,-73.89845799999999
212-222-3652,DRUG SHOPPE LLC #331930,2074 8TH AVENUE,NEW YORK,NY,10026,,,"Janssen, COVID-19 Vaccine, 0.5 mL",40.801968,-73.956808
(718) 232-8668,ALL FAMILY PHARMACY INC #MS1006171,7017 18TH AVE,BROOKLYN,NY,11204-5269,,True,"Pfizer-BioNTech, COVID-19 Vaccine, 10 mcg/0.2 mL, tris-sucrose",40.615763,-73.993299
212-222-3652,DRUG SHOPPE LLC #331930,2074 8TH AVENUE,NEW YORK,NY,10026,,,"Pfizer-BioNTech, COVID-19 Vaccine, 10 mcg/0.2 mL, tris-sucrose",40.801968,-73.956808
(631) 380-3800,DORADO PHARMACY #MS1006303,1440 FOREST AVE STORE 5,STATEN ISLAND,NY,10302-2215,,True,"Moderna, SPIKEVAX, 100mcg/0.5mL",40.624210999999995,-74.136337
(631) 380-3800,DORADO PHARMACY #MS1006303,1440 FOREST AVE STORE 5,STATEN ISLAND,NY,10302-2215,,True,"Pfizer-BioNTech, COVID-19 Vaccine, 3 mcg/0.2 mL, tris-sucrose",40.624210999999995,-74.136337
(631) 380-3800,DORADO PHARMACY #MS1006303,1440 FOREST AVE STORE 5,STATEN ISLAND,NY,10302-2215,,True,"Pfizer-BioNTech, COVID-19 Vaccine, 10 mcg/0.2 mL, tris-sucrose",40.624210999999995,-74.136337
(718) 996-7600,BOARDWALK RX CORP #MS1006165,3100 Ocean Pkwy,brooklyn,NY,11235-8439,,True,"Moderna, COVID-19 Vaccine, 100mcg/0.5mL 10 dose",40.576192999999996,-73.969431
(631) 380-3800,DORADO PHARMACY #MS1006303,1440 FOREST AVE STORE 5,STATEN ISLAND,NY,10302-2215,,True,"Pfizer-BioNTech, COVID-19 Vaccine, 30 mcg/0.3mL, tris-sucrose",40.624210999999995,-74.136337
718-543-3116,SEDGWICK PHARMACY #331065,3887 SEDGWICK AVENUE,BRONX,NY,10463,,,"Janssen, COVID-19 Vaccine, 0.5 mL",40.883007,-73.89345
(718) 232-8668,ALL FAMILY PHARMACY INC #MS1006171,7017 18TH AVE,BROOKLYN,NY,11204-5269,,True,"Janssen, COVID-19 Vaccine, 0.5 mL",40.615763,-73.993299
(631) 380-3800,DORADO PHARMACY #MS1006303,1440 FOREST AVE STORE 5,STATEN ISLAND,NY,10302-2215,,True,"Moderna, COVID-19 Vaccine, 100mcg/0.5mL 10 dose",40.624210999999995,-74.136337
(718) 274-9200,MNT DRUGS INC D/B/A BONUS DRUG #332365,31-04 BROADWAY,ASTORIA,NY,11106,http://bonusdrug.com,True,"Janssen, COVID-19 Vaccine, 0.5 mL",40.761767,-73.92526
(718) 492-3888,A PLUS PHARMACY CORPORATION #MS1005733,5605 7TH AVE,BROOKLYN,NY,11220-3509,,True,"Moderna, COVID-19 Vaccine, 100mcg/0.5mL 10 dose",40.638816,-74.009433
212-222-3652,DRUG SHOPPE LLC #331930,2074 8TH AVENUE,NEW YORK,NY,10026,,,"Moderna, COVID-19 Vaccine, 100mcg/0.5mL 10 dose",40.801968,-73.956808
(718) 352-3200,AUBURNDALE PHARMACY #MS1005416,192-15 47TH AVE,FLUSHING,NY,11358-3906,http://auburndalepharmacy.com,True,"Janssen, COVID-19 Vaccine, 0.5 mL",40.752112,-73.788489
718-606-0068,Metrocare Pharmacy Inc #3347918,2112 B 36th Avenue,Long Island City,NY,11106,,,"Pfizer-BioNTech, COMIRNATY, 30 mcg/0.3 mL, tris-sucrose",40.759051,-73.935071
(718) 460-8329,SANFORD PHARMACY #MS1005875,133-47 SANFORD AVE C1D,FLUSHING,NY,11355-5870,,True,"Pfizer-BioNTech, COVID-19 Vaccine, 30 mcg/0.3mL, tris-sucrose",40.756667,-73.829515
(718) 294-5070,JEROME DRUGS #MS1005154,1781 JEROME AVE,BRONX,NY,10453,https://www.jeromedrugs.com,True,"Pfizer-BioNTech, COVID-19 Vaccine, 30 mcg/0.3mL, tris-sucrose",40.848766999999995,-73.91197199999999
(718) 294-5070,JEROME DRUGS #MS1005154,1781 JEROME AVE,BRONX,NY,10453,https://www.jeromedrugs.com,True,"Pfizer-BioNTech, COVID-19 Vaccine, 10 mcg/0.2 mL, tris-sucrose",40.848766999999995,-73.91197199999999
(718) 294-5070,JEROME DRUGS #MS1005154,1781 JEROME AVE,BRONX,NY,10453,https://www.jeromedrugs.com,True,"Moderna, COVID-19 Vaccine, 100mcg/0.5mL 10 dose",40.848766999999995,-73.91197199999999
(718) 460-8329,SANFORD PHARMACY #MS1005875,133-47 SANFORD AVE C1D,FLUSHING,NY,11355-5870,,True,"Moderna, COVID-19 Vaccine, 100mcg/0.5mL 10 dose",40.756667,-73.829515
(718) 232-8277,WELLNESS PHARMACY INC #MS1006265,217 KINGS HWY,BROOKLYN,NY,11223-1106,,True,"Moderna, COVID-19 Vaccine, 50 mcg/0.50 mL",40.605666,-73.98342
